{"type":"FeatureCollection","features":[{"type":"Feature","geometry":{"type":"Point","coordinates":[32.53329952486485,0.58329910561463]},"properties":{"name":"Bombo","name_de":""}},{"type":"Feature","geometry":{"type":"Point","coordinates":[30.27500161597942,0.67100412112524]},"properties":{"name":"Fort Portal","name_de":"Fort Portal"}},{"type":"Feature","geometry":{"type":"Point","coordinates":[15.79899649564027,40.64200213009821]},"properties":{"name":"Potenza","name_de":"Potenza"}},{"type":"Feature","geometry":{"type":"Point","coordinates":[14.65599655892186,41.56299911864397]},"properties":{"name":"Campobasso","name_de":"Campobasso"}},{"type":"Feature","geometry":{"type":"Point","coordinates":[7.31500259570618,45.7370010670723]},"properties":{"name":"Aosta","name_de":"Aosta"}},{"type":"Feature","geometry":{"type":"Point","coordinates":[19.9490044718691,60.09699618489543]},"properties":{"name":"Mariehamn","name_de":"Mariehamn"}},{"type":"Feature","geometry":{"type":"Point","coordinates":[35.20620937818956,31.90294475142406]},"properties":{"name":"Ramallah","name_de":"Ramallah"}},{"type":"Feature","geometry":{"type":"Point","coordinates":[12.45338654497177,41.90328217996012]},"properties":{"name":"Vatican City","name_de":"Vatikanstadt"}},{"type":"Feature","geometry":{"type":"Point","coordinates":[0.33327652853455,46.58329225573658]},"properties":{"name":"Poitiers","name_de":"Poitiers"}},{"type":"Feature","geometry":{"type":"Point","coordinates":[3.08000809592841,45.77998211575942]},"properties":{"name":"Clermont-Ferrand","name_de":"Clermont-Ferrand"}},{"type":"Feature","geometry":{"type":"Point","coordinates":[6.03000890974238,47.22999696765334]},"properties":{"name":"Besançon","name_de":"Besançon"}},{"type":"Feature","geometry":{"type":"Point","coordinates":[-58.86386407233991,-62.17388669198187]},"properties":{"name":"Artigas Base","name_de":"Base Científica Antártica Artigas"}},{"type":"Feature","geometry":{"type":"Point","coordinates":[32.6400125719581,-13.62956988643134]},"properties":{"name":"Chipata","name_de":"Chipata"}},{"type":"Feature","geometry":{"type":"Point","coordinates":[33.19992671584066,0.44042401010933]},"properties":{"name":"Jinja","name_de":"Jinja"}},{"type":"Feature","geometry":{"type":"Point","coordinates":[30.90001542025851,3.02036989228105]},"properties":{"name":"Arua","name_de":"Arua"}},{"type":"Feature","geometry":{"type":"Point","coordinates":[34.16999670282365,1.09041017547656]},"properties":{"name":"Mbale","name_de":"Mbale"}},{"type":"Feature","geometry":{"type":"Point","coordinates":[34.6399938545182,2.54034751272195]},"properties":{"name":"Moroto Town","name_de":""}},{"type":"Feature","geometry":{"type":"Point","coordinates":[31.72999059929834,-0.32960650747185]},"properties":{"name":"Masaka","name_de":"Masaka"}},{"type":"Feature","geometry":{"type":"Point","coordinates":[30.65000484083038,-0.59961586619693]},"properties":{"name":"Mbarara","name_de":"Mbarara"}},{"type":"Feature","geometry":{"type":"Point","coordinates":[16.64000728218059,-20.45954058958369]},"properties":{"name":"Otjiwarongo","name_de":"Otjiwarongo"}},{"type":"Feature","geometry":{"type":"Point","coordinates":[11.34002070989385,44.50042197578034]},"properties":{"name":"Bologna","name_de":"Bologna"}},{"type":"Feature","geometry":{"type":"Point","coordinates":[9.10398148462434,39.22239788721748]},"properties":{"name":"Cagliari","name_de":"Cagliari"}},{"type":"Feature","geometry":{"type":"Point","coordinates":[16.60000972358671,38.90037619939079]},"properties":{"name":"Catanzaro","name_de":"Catanzaro"}},{"type":"Feature","geometry":{"type":"Point","coordinates":[16.87275793322317,41.11422039699085]},"properties":{"name":"Bari","name_de":"Bari"}},{"type":"Feature","geometry":{"type":"Point","coordinates":[13.39002477891239,42.35039817206081]},"properties":{"name":"L'Aquila","name_de":"L’Aquila"}},{"type":"Feature","geometry":{"type":"Point","coordinates":[13.49994055039713,43.6003735545529]},"properties":{"name":"Ancona","name_de":"Ancona"}},{"type":"Feature","geometry":{"type":"Point","coordinates":[12.38998246120008,43.11037762356119]},"properties":{"name":"Perugia","name_de":"Perugia"}},{"type":"Feature","geometry":{"type":"Point","coordinates":[13.80002559271611,45.65037762357144]},"properties":{"name":"Trieste","name_de":"Triest"}},{"type":"Feature","geometry":{"type":"Point","coordinates":[11.11998246119504,46.08042889310451]},"properties":{"name":"Trento","name_de":"Trient"}},{"type":"Feature","geometry":{"type":"Point","coordinates":[-61.08002913577354,14.61041180313487]},"properties":{"name":"Fort-de-France","name_de":"Fort-de-France"}},{"type":"Feature","geometry":{"type":"Point","coordinates":[136.76275264398942,35.42309490868684]},"properties":{"name":"Gifu","name_de":"Gifu"}},{"type":"Feature","geometry":{"type":"Point","coordinates":[-54.03253458791767,5.49762408054068]},"properties":{"name":"Saint-Laurent-du-Maroni","name_de":"Saint-Laurent-du-Maroni"}},{"type":"Feature","geometry":{"type":"Point","coordinates":[-0.34998925922849,49.18375368152834]},"properties":{"name":"Caen","name_de":"Caen"}},{"type":"Feature","geometry":{"type":"Point","coordinates":[-1.59001692850438,47.2103857615985]},"properties":{"name":"Nantes","name_de":"Nantes"}},{"type":"Feature","geometry":{"type":"Point","coordinates":[8.72829382186257,41.92706483872587]},"properties":{"name":"Ajaccio","name_de":"Ajaccio"}},{"type":"Feature","geometry":{"type":"Point","coordinates":[3.86998571637429,43.61039878241746]},"properties":{"name":"Montpellier","name_de":"Montpellier"}},{"type":"Feature","geometry":{"type":"Point","coordinates":[5.03001826846224,47.33040427559638]},"properties":{"name":"Dijon","name_de":"Dijon"}},{"type":"Feature","geometry":{"type":"Point","coordinates":[1.90002844097592,47.90042116199186]},"properties":{"name":"Orléans","name_de":"Orléans"}},{"type":"Feature","geometry":{"type":"Point","coordinates":[1.07997513693613,49.43040529285742]},"properties":{"name":"Rouen","name_de":"Rouen"}},{"type":"Feature","geometry":{"type":"Point","coordinates":[4.02997595074987,49.25039044096872]},"properties":{"name":"Reims","name_de":"Reims"}},{"type":"Feature","geometry":{"type":"Point","coordinates":[2.30000402691485,49.90037660633595]},"properties":{"name":"Amiens","name_de":"Amiens"}},{"type":"Feature","geometry":{"type":"Point","coordinates":[6.20002437198252,48.6836808462399]},"properties":{"name":"Nancy","name_de":"Nancy"}},{"type":"Feature","geometry":{"type":"Point","coordinates":[-61.70548369890864,16.01041011391576]},"properties":{"name":"Basse-Terre","name_de":"Basse-Terre"}},{"type":"Feature","geometry":{"type":"Point","coordinates":[19.84994055042267,45.25037619941611]},"properties":{"name":"Novi Sad","name_de":"Novi Sad"}},{"type":"Feature","geometry":{"type":"Point","coordinates":[17.1799743231984,44.78040488593774]},"properties":{"name":"Banja Luka","name_de":"Banja Luka"}},{"type":"Feature","geometry":{"type":"Point","coordinates":[-81.3299817318831,19.28043682756749]},"properties":{"name":"George Town","name_de":"George Town"}},{"type":"Feature","geometry":{"type":"Point","coordinates":[-71.13597863939452,21.46642742816215]},"properties":{"name":"Cockburn Town","name_de":"Cockburn Town"}},{"type":"Feature","geometry":{"type":"Point","coordinates":[-4.4800214044273,54.15042726553247]},"properties":{"name":"Douglas","name_de":"Douglas"}},{"type":"Feature","geometry":{"type":"Point","coordinates":[12.44177015780014,43.93609583476801]},"properties":{"name":"San Marino","name_de":"San Marino"}},{"type":"Feature","geometry":{"type":"Point","coordinates":[-69.01998376633918,12.20042970677105]},"properties":{"name":"Willemstad","name_de":"Willemstad"}},{"type":"Feature","geometry":{"type":"Point","coordinates":[-70.02899194505409,12.5303837269546]},"properties":{"name":"Oranjestad","name_de":"Oranjestad"}},{"type":"Feature","geometry":{"type":"Point","coordinates":[9.51666947290727,47.13372377429357]},"properties":{"name":"Vaduz","name_de":"Vaduz"}},{"type":"Feature","geometry":{"type":"Point","coordinates":[-5.37807482973153,36.1324349459648]},"properties":{"name":"Gibraltar","name_de":"Gibraltar"}},{"type":"Feature","geometry":{"type":"Point","coordinates":[31.19999710971274,-26.46666746135247]},"properties":{"name":"Lobamba","name_de":"Lobamba"}},{"type":"Feature","geometry":{"type":"Point","coordinates":[-3.2190906182895,55.94832785961535]},"properties":{"name":"Edinburgh","name_de":"Edinburgh"}},{"type":"Feature","geometry":{"type":"Point","coordinates":[-3.22500756978695,51.49999472971462]},"properties":{"name":"Cardiff","name_de":"Cardiff"}},{"type":"Feature","geometry":{"type":"Point","coordinates":[15.54999629584808,78.21668438639699]},"properties":{"name":"Longyearbyen","name_de":"Longyearbyen"}},{"type":"Feature","geometry":{"type":"Point","coordinates":[6.13000280622708,49.61166037912108]},"properties":{"name":"Luxembourg","name_de":"Luxemburg"}},{"type":"Feature","geometry":{"type":"Point","coordinates":[7.66801462991208,45.07233304435653]},"properties":{"name":"Turin","name_de":"Turin"}},{"type":"Feature","geometry":{"type":"Point","coordinates":[166.4442852031308,-22.26252776373076]},"properties":{"name":"Nouméa","name_de":"Nouméa"}},{"type":"Feature","geometry":{"type":"Point","coordinates":[132.76583898837453,33.84554262189664]},"properties":{"name":"Matsuyama","name_de":"Matsuyama"}},{"type":"Feature","geometry":{"type":"Point","coordinates":[-1.67001204569209,48.10002138171922]},"properties":{"name":"Rennes","name_de":"Rennes"}},{"type":"Feature","geometry":{"type":"Point","coordinates":[1.44798085710062,43.62190478100428]},"properties":{"name":"Toulouse","name_de":"Toulouse"}},{"type":"Feature","geometry":{"type":"Point","coordinates":[1.24999059917627,45.82997906400186]},"properties":{"name":"Limoges","name_de":"Limoges"}},{"type":"Feature","geometry":{"type":"Point","coordinates":[3.07806223731552,50.65191495355856]},"properties":{"name":"Lille","name_de":"Lille"}},{"type":"Feature","geometry":{"type":"Point","coordinates":[7.75000728214502,48.57996624662996]},"properties":{"name":"Strasbourg","name_de":"Straßburg"}},{"type":"Feature","geometry":{"type":"Point","coordinates":[41.63000646847843,41.60000469875053]},"properties":{"name":"Batumi","name_de":"Batumi"}},{"type":"Feature","geometry":{"type":"Point","coordinates":[-16.88003971502377,32.64998252260807]},"properties":{"name":"Funchal","name_de":"Funchal"}},{"type":"Feature","geometry":{"type":"Point","coordinates":[25.35001826854347,13.62998069147716]},"properties":{"name":"Al-Fashir","name_de":"Al-Faschir"}},{"type":"Feature","geometry":{"type":"Point","coordinates":[18.12999385445221,-26.57389605835811]},"properties":{"name":"Keetmanshoop","name_de":"Keetmanshoop"}},{"type":"Feature","geometry":{"type":"Point","coordinates":[14.53501948920348,-22.66886309935807]},"properties":{"name":"Swakopmund","name_de":"Swakopmund"}},{"type":"Feature","geometry":{"type":"Point","coordinates":[8.93003861352986,44.40998821926962]},"properties":{"name":"Genoa","name_de":"Genua"}},{"type":"Feature","geometry":{"type":"Point","coordinates":[41.02001786170524,43.02002138169894]},"properties":{"name":"Sukhumi","name_de":"Sochumi"}},{"type":"Feature","geometry":{"type":"Point","coordinates":[158.1499743237623,6.91664369600773]},"properties":{"name":"Palikir","name_de":"Palikir"}},{"type":"Feature","geometry":{"type":"Point","coordinates":[171.38000017574657,7.10300431121624]},"properties":{"name":"Majuro","name_de":"Majuro-Atoll"}},{"type":"Feature","geometry":{"type":"Point","coordinates":[144.750017048318,13.47001629531781]},"properties":{"name":"Hagåtña","name_de":"Hagåtña"}},{"type":"Feature","geometry":{"type":"Point","coordinates":[179.21664709402887,-8.51665199904107]},"properties":{"name":"Funafuti","name_de":"Funafuti"}},{"type":"Feature","geometry":{"type":"Point","coordinates":[134.62654846699218,7.48739617297798]},"properties":{"name":"Melekeok","name_de":"Melekeok"}},{"type":"Feature","geometry":{"type":"Point","coordinates":[-9.65252221825011,26.11916668599338]},"properties":{"name":"Bir Lehlou","name_de":"Bir Lehlu"}},{"type":"Feature","geometry":{"type":"Point","coordinates":[7.40691317346506,43.73964568785249]},"properties":{"name":"Monaco","name_de":"Monaco"}},{"type":"Feature","geometry":{"type":"Point","coordinates":[173.01757082854942,1.3381875056246]},"properties":{"name":"Tarawa","name_de":"Tarawa"}},{"type":"Feature","geometry":{"type":"Point","coordinates":[43.24024409869333,-11.70415769566847]},"properties":{"name":"Moroni","name_de":"Moroni"}},{"type":"Feature","geometry":{"type":"Point","coordinates":[113.54504837957336,22.20299745583452]},"properties":{"name":"Macau","name_de":"Macau"}},{"type":"Feature","geometry":{"type":"Point","coordinates":[1.51648596050552,42.5000014435459]},"properties":{"name":"Andorra la Vella","name_de":"Andorra la Vella"}},{"type":"Feature","geometry":{"type":"Point","coordinates":[-117.3019800808744,34.1223295856538]},"properties":{"name":"San Bernardino","name_de":"San Bernardino"}},{"type":"Feature","geometry":{"type":"Point","coordinates":[-73.20190704196108,41.1819245156953]},"properties":{"name":"Bridgeport","name_de":"Bridgeport"}},{"type":"Feature","geometry":{"type":"Point","coordinates":[-77.62189564874956,43.17237149649736]},"properties":{"name":"Rochester","name_de":"Rochester"}},{"type":"Feature","geometry":{"type":"Point","coordinates":[-2.24993296127349,53.50236112056228]},"properties":{"name":"Manchester","name_de":"Manchester"}},{"type":"Feature","geometry":{"type":"Point","coordinates":[74.1830760722354,32.16237169990376]},"properties":{"name":"Gujranwala","name_de":"Gujranwala"}},{"type":"Feature","geometry":{"type":"Point","coordinates":[126.6402875796067,37.47809374582357]},"properties":{"name":"Incheon","name_de":"Incheon"}},{"type":"Feature","geometry":{"type":"Point","coordinates":[5.61806223732572,6.34242317278233]},"properties":{"name":"Benin City","name_de":"Benin-Stadt"}},{"type":"Feature","geometry":{"type":"Point","coordinates":[118.07807118959852,24.45193794336257]},"properties":{"name":"Xiamen","name_de":"Xiamen"}},{"type":"Feature","geometry":{"type":"Point","coordinates":[106.12805125139964,30.78237841376546]},"properties":{"name":"Nanchong","name_de":"Nanchong"}},{"type":"Feature","geometry":{"type":"Point","coordinates":[105.04806549293176,29.58232246486762]},"properties":{"name":"Neijiang","name_de":"Neijiang"}},{"type":"Feature","geometry":{"type":"Point","coordinates":[112.5280740378837,33.00234626859231]},"properties":{"name":"Nanyang","name_de":"Nanyang"}},{"type":"Feature","geometry":{"type":"Point","coordinates":[120.82803253401062,40.75228665762057]},"properties":{"name":"Lianshan","name_de":"Lianshan"}},{"type":"Feature","geometry":{"type":"Point","coordinates":[121.39807525862216,37.53235399973011]},"properties":{"name":"Yantai","name_de":"Yantai"}},{"type":"Feature","geometry":{"type":"Point","coordinates":[117.5680764793101,34.88194730212843]},"properties":{"name":"Zaozhuang","name_de":"Zaozhuang"}},{"type":"Feature","geometry":{"type":"Point","coordinates":[120.6180711896086,31.30242419013502]},"properties":{"name":"Suzhou","name_de":"Suzhou"}},{"type":"Feature","geometry":{"type":"Point","coordinates":[117.17807444480307,34.28195808500345]},"properties":{"name":"Xuzhou","name_de":"Xuzhou"}},{"type":"Feature","geometry":{"type":"Point","coordinates":[120.29803904442508,31.58194201240144]},"properties":{"name":"Wuxi","name_de":"Wuxi"}},{"type":"Feature","geometry":{"type":"Point","coordinates":[126.54809682439804,43.85191658113547]},"properties":{"name":"Jilin City","name_de":"Jilin"}},{"type":"Feature","geometry":{"type":"Point","coordinates":[76.77805979620422,30.72194282620012]},"properties":{"name":"Chandigarh","name_de":"Chandigarh"}},{"type":"Feature","geometry":{"type":"Point","coordinates":[74.84479278773284,32.71373339424218]},"properties":{"name":"Jammu","name_de":"Jammu"}},{"type":"Feature","geometry":{"type":"Point","coordinates":[75.89806183070573,17.67235176169487]},"properties":{"name":"Solapur","name_de":"Solapur"}},{"type":"Feature","geometry":{"type":"Point","coordinates":[75.31835561325562,19.89764228904755]},"properties":{"name":"Aurangabad","name_de":"Aurangabad"}},{"type":"Feature","geometry":{"type":"Point","coordinates":[73.77803619593175,20.00236457908704]},"properties":{"name":"Nashik","name_de":"Nashik"}},{"type":"Feature","geometry":{"type":"Point","coordinates":[91.76663610735083,26.14402304992564]},"properties":{"name":"Dispur","name_de":"Dispur"}},{"type":"Feature","geometry":{"type":"Point","coordinates":[75.56707428187644,31.33686653225721]},"properties":{"name":"Jalandhar","name_de":"Jalandhar"}},{"type":"Feature","geometry":{"type":"Point","coordinates":[81.83806101692738,25.45694119857496]},"properties":{"name":"Allahabad","name_de":"Allahabad"}},{"type":"Feature","geometry":{"type":"Point","coordinates":[78.75483836066508,28.8437370563359]},"properties":{"name":"Muradabad","name_de":"Moradabad"}},{"type":"Feature","geometry":{"type":"Point","coordinates":[77.40644521287328,28.6623269407753]},"properties":{"name":"Ghaziabad","name_de":"Ghaziabad"}},{"type":"Feature","geometry":{"type":"Point","coordinates":[78.01307485154763,27.1723662067198]},"properties":{"name":"Agra","name_de":"Agra"}},{"type":"Feature","geometry":{"type":"Point","coordinates":[78.05984202277182,27.89415677475654]},"properties":{"name":"Aligarh","name_de":"Aligarh"}},{"type":"Feature","geometry":{"type":"Point","coordinates":[77.69805532029636,29.00235786525593]},"properties":{"name":"Meerut","name_de":"Meerut"}},{"type":"Feature","geometry":{"type":"Point","coordinates":[86.41803985809162,23.80233935123761]},"properties":{"name":"Dhanbad","name_de":"Dhanbad"}},{"type":"Feature","geometry":{"type":"Point","coordinates":[78.17812937628787,26.2319326536562]},"properties":{"name":"Gwalior","name_de":"Gwalior"}},{"type":"Feature","geometry":{"type":"Point","coordinates":[73.17807281702295,22.31196520572399]},"properties":{"name":"Vadodara","name_de":"Vadodara"}},{"type":"Feature","geometry":{"type":"Point","coordinates":[70.79806305138851,22.31196520572399]},"properties":{"name":"Rajkot","name_de":"Rajkot"}},{"type":"Feature","geometry":{"type":"Point","coordinates":[-56.51004968425786,-33.41001625695321]},"properties":{"name":"Durazno","name_de":"Durazno"}},{"type":"Feature","geometry":{"type":"Point","coordinates":[-93.410846396645,48.60112774565346]},"properties":{"name":"International Falls","name_de":"International Falls"}},{"type":"Feature","geometry":{"type":"Point","coordinates":[-93.08497481461256,44.94398663235774]},"properties":{"name":"Saint Paul","name_de":"Saint Paul"}},{"type":"Feature","geometry":{"type":"Point","coordinates":[-108.54000044943984,45.78830202135839]},"properties":{"name":"Billings","name_de":"Billings"}},{"type":"Feature","geometry":{"type":"Point","coordinates":[-111.29998702171667,47.50029054675599]},"properties":{"name":"Great Falls","name_de":"Great Falls"}},{"type":"Feature","geometry":{"type":"Point","coordinates":[-113.99305261417528,46.87224102689663]},"properties":{"name":"Missoula","name_de":"Missoula"}},{"type":"Feature","geometry":{"type":"Point","coordinates":[-101.2958173032522,48.23249391589951]},"properties":{"name":"Minot","name_de":"Minot"}},{"type":"Feature","geometry":{"type":"Point","coordinates":[-96.78942570167165,46.87722780261288]},"properties":{"name":"Fargo","name_de":"Fargo"}},{"type":"Feature","geometry":{"type":"Point","coordinates":[-155.0900273050949,19.69999778134525]},"properties":{"name":"Hilo","name_de":"Hilo"}},{"type":"Feature","geometry":{"type":"Point","coordinates":[-122.89943404324742,47.03804485990508]},"properties":{"name":"Olympia","name_de":"Olympia"}},{"type":"Feature","geometry":{"type":"Point","coordinates":[-117.41994938339474,47.66999595040238]},"properties":{"name":"Spokane","name_de":"Spokane"}},{"type":"Feature","geometry":{"type":"Point","coordinates":[-122.63999251492606,45.63030132962615]},"properties":{"name":"Vancouver","name_de":"Vancouver"}},{"type":"Feature","geometry":{"type":"Point","coordinates":[-111.65050826195244,35.19809572248795]},"properties":{"name":"Flagstaff","name_de":"Flagstaff"}},{"type":"Feature","geometry":{"type":"Point","coordinates":[-110.89193206652578,32.20694262275566]},"properties":{"name":"Tucson","name_de":"Tucson"}},{"type":"Feature","geometry":{"type":"Point","coordinates":[-119.71998987005765,34.43498984683385]},"properties":{"name":"Santa Barbara","name_de":"Santa Barbara"}},{"type":"Feature","geometry":{"type":"Point","coordinates":[-119.77298405137292,36.74771689762446]},"properties":{"name":"Fresno","name_de":"Fresno"}},{"type":"Feature","geometry":{"type":"Point","coordinates":[-124.14749739774452,40.80222393702854]},"properties":{"name":"Eureka","name_de":"Eureka"}},{"type":"Feature","geometry":{"type":"Point","coordinates":[-104.79198632995885,38.86296246241153]},"properties":{"name":"Colorado Springs","name_de":"Colorado Springs"}},{"type":"Feature","geometry":{"type":"Point","coordinates":[-119.82000960475848,39.52997601221881]},"properties":{"name":"Reno","name_de":"Reno"}},{"type":"Feature","geometry":{"type":"Point","coordinates":[-115.7619885679585,40.83250632635162]},"properties":{"name":"Elko","name_de":"Elko"}},{"type":"Feature","geometry":{"type":"Point","coordinates":[-106.641330812388,35.10497479149802]},"properties":{"name":"Albuquerque","name_de":"Albuquerque"}},{"type":"Feature","geometry":{"type":"Point","coordinates":[-123.0238967304224,44.92807029121173]},"properties":{"name":"Salem","name_de":"Salem"}},{"type":"Feature","geometry":{"type":"Point","coordinates":[-106.3124878354987,42.8666198924405]},"properties":{"name":"Casper","name_de":"Casper"}},{"type":"Feature","geometry":{"type":"Point","coordinates":[-95.6699849871489,39.05000530909189]},"properties":{"name":"Topeka","name_de":"Topeka"}},{"type":"Feature","geometry":{"type":"Point","coordinates":[-94.6060400775458,39.10903436839749]},"properties":{"name":"Kansas City","name_de":"Kansas City"}},{"type":"Feature","geometry":{"type":"Point","coordinates":[-95.9300207944416,36.12000327457503]},"properties":{"name":"Tulsa","name_de":"Tulsa"}},{"type":"Feature","geometry":{"type":"Point","coordinates":[-96.72999780453596,43.5499890330683]},"properties":{"name":"Sioux Falls","name_de":"Sioux Falls"}},{"type":"Feature","geometry":{"type":"Point","coordinates":[-93.77002343928972,32.50001751609705]},"properties":{"name":"Shreveport","name_de":"Shreveport"}},{"type":"Feature","geometry":{"type":"Point","coordinates":[-91.14015812352396,30.45794577943514]},"properties":{"name":"Baton Rouge","name_de":"Baton Rouge"}},{"type":"Feature","geometry":{"type":"Point","coordinates":[-97.34003808774143,32.73997702944422]},"properties":{"name":"Fort Worth","name_de":"Fort Worth"}},{"type":"Feature","geometry":{"type":"Point","coordinates":[-97.4018947771948,27.74281435038785]},"properties":{"name":"Corpus Christi","name_de":"Corpus Christi"}},{"type":"Feature","geometry":{"type":"Point","coordinates":[-97.74472422142117,30.26889554429738]},"properties":{"name":"Austin","name_de":"Austin"}},{"type":"Feature","geometry":{"type":"Point","coordinates":[-101.82999658385324,35.22998008121204]},"properties":{"name":"Amarillo","name_de":"Amarillo"}},{"type":"Feature","geometry":{"type":"Point","coordinates":[-106.51194101833124,31.78192980537125]},"properties":{"name":"El Paso","name_de":"El Paso"}},{"type":"Feature","geometry":{"type":"Point","coordinates":[-99.50721846698184,27.50613629049099]},"properties":{"name":"Laredo","name_de":"Laredo"}},{"type":"Feature","geometry":{"type":"Point","coordinates":[-71.13001001146483,8.39998984672968]},"properties":{"name":"Mérida","name_de":"Mérida"}},{"type":"Feature","geometry":{"type":"Point","coordinates":[-73.21246687996268,44.47579815579337]},"properties":{"name":"Burlington","name_de":"Burlington"}},{"type":"Feature","geometry":{"type":"Point","coordinates":[-86.27918868177272,32.36160219220307]},"properties":{"name":"Montgomery","name_de":"Montgomery"}},{"type":"Feature","geometry":{"type":"Point","coordinates":[-84.28003422212942,30.4499876088621]},"properties":{"name":"Tallahassee","name_de":"Tallahassee"}},{"type":"Feature","geometry":{"type":"Point","coordinates":[-81.38197621517077,28.51192268458994]},"properties":{"name":"Orlando","name_de":"Orlando"}},{"type":"Feature","geometry":{"type":"Point","coordinates":[-81.67193267676049,30.33196662990969]},"properties":{"name":"Jacksonville","name_de":"Jacksonville"}},{"type":"Feature","geometry":{"type":"Point","coordinates":[-81.10999515961657,32.02110617983209]},"properties":{"name":"Savannah","name_de":"Savannah"}},{"type":"Feature","geometry":{"type":"Point","coordinates":[-80.89998213878243,34.03997519839476]},"properties":{"name":"Columbia","name_de":"Columbia"}},{"type":"Feature","geometry":{"type":"Point","coordinates":[-86.1719939153852,39.75193428131451]},"properties":{"name":"Indianapolis","name_de":"Indianapolis"}},{"type":"Feature","geometry":{"type":"Point","coordinates":[-77.94502038746856,34.22551942853886]},"properties":{"name":"Wilmington","name_de":"Wilmington"}},{"type":"Feature","geometry":{"type":"Point","coordinates":[-83.92003035656808,35.97001242984783]},"properties":{"name":"Knoxville","name_de":"Knoxville"}},{"type":"Feature","geometry":{"type":"Point","coordinates":[-77.45193186294159,37.55196520578477]},"properties":{"name":"Richmond","name_de":"Richmond"}},{"type":"Feature","geometry":{"type":"Point","coordinates":[-81.63272811046517,38.3497379751048]},"properties":{"name":"Charleston","name_de":"Charleston"}},{"type":"Feature","geometry":{"type":"Point","coordinates":[-76.62193084568548,39.30193590891673]},"properties":{"name":"Baltimore","name_de":"Baltimore"}},{"type":"Feature","geometry":{"type":"Point","coordinates":[-76.15001367359423,43.04999371242826]},"properties":{"name":"Syracuse","name_de":"Syracuse"}},{"type":"Feature","geometry":{"type":"Point","coordinates":[-67.62360905116435,5.66390362438807]},"properties":{"name":"Puerto Ayacucho","name_de":"Puerto Ayacucho"}},{"type":"Feature","geometry":{"type":"Point","coordinates":[-61.51703088544974,10.65199708957726]},"properties":{"name":"Port of Spain","name_de":"Port of Spain"}},{"type":"Feature","geometry":{"type":"Point","coordinates":[-69.77998905605574,44.31056276353996]},"properties":{"name":"Augusta","name_de":"Augusta"}},{"type":"Feature","geometry":{"type":"Point","coordinates":[-84.34527571789789,46.49526145332737]},"properties":{"name":"Sault Ste. Marie","name_de":"Sault Ste. Marie"}},{"type":"Feature","geometry":{"type":"Point","coordinates":[1.12002437196219,7.53004294731215]},"properties":{"name":"Atakpamé","name_de":"Atakpamé"}},{"type":"Feature","geometry":{"type":"Point","coordinates":[10.62502559270348,35.82999513655301]},"properties":{"name":"Sousse","name_de":"Sousse"}},{"type":"Feature","geometry":{"type":"Point","coordinates":[44.03747426547426,13.60639839253798]},"properties":{"name":"Ta'izz","name_de":"Taizz"}},{"type":"Feature","geometry":{"type":"Point","coordinates":[-135.32754942897532,57.06039769173145]},"properties":{"name":"Sitka","name_de":"Sitka"}},{"type":"Feature","geometry":{"type":"Point","coordinates":[24.02999548207999,49.83498008127054]},"properties":{"name":"Lviv","name_de":"Lwiw"}},{"type":"Feature","geometry":{"type":"Point","coordinates":[30.70805532010832,46.49196215406283]},"properties":{"name":"Odessa","name_de":"Odessa"}},{"type":"Feature","geometry":{"type":"Point","coordinates":[28.66216751985883,50.24557517404554]},"properties":{"name":"Zhytomyr","name_de":"Schytomyr"}},{"type":"Feature","geometry":{"type":"Point","coordinates":[34.99807769968277,48.48191820875832]},"properties":{"name":"Dnipro","name_de":"Dnipro"}},{"type":"Feature","geometry":{"type":"Point","coordinates":[37.82803416128263,48.00194750563139]},"properties":{"name":"Donetsk","name_de":"Donezk"}},{"type":"Feature","geometry":{"type":"Point","coordinates":[36.24807892039098,50.00192878819132]},"properties":{"name":"Kharkiv","name_de":"Charkow"}},{"type":"Feature","geometry":{"type":"Point","coordinates":[52.969676064878,40.02304669093184]},"properties":{"name":"Türkmenbaşy","name_de":"Türkmenbaşy"}},{"type":"Feature","geometry":{"type":"Point","coordinates":[64.43001013067908,39.78001242986312]},"properties":{"name":"Bukhara","name_de":"Buchara"}},{"type":"Feature","geometry":{"type":"Point","coordinates":[59.6150068754514,42.4700032746004]},"properties":{"name":"Nukus","name_de":"Nukus"}},{"type":"Feature","geometry":{"type":"Point","coordinates":[63.58003617234238,39.11000164698271]},"properties":{"name":"Türkmenabat","name_de":"Türkmenabat"}},{"type":"Feature","geometry":{"type":"Point","coordinates":[61.83332108444483,37.60001629541432]},"properties":{"name":"Mary","name_de":"Mary"}},{"type":"Feature","geometry":{"type":"Point","coordinates":[72.33996659229928,40.79000246079164]},"properties":{"name":"Andijan","name_de":"Andijon"}},{"type":"Feature","geometry":{"type":"Point","coordinates":[106.6781468731466,20.83195218488453]},"properties":{"name":"Haiphong","name_de":"Hải Phòng"}},{"type":"Feature","geometry":{"type":"Point","coordinates":[108.24997106835434,16.0600390817865]},"properties":{"name":"Da Nang","name_de":"Đà Nẵng"}},{"type":"Feature","geometry":{"type":"Point","coordinates":[28.44998408886846,-14.44001137406479]},"properties":{"name":"Kabwe","name_de":"Kabwe"}},{"type":"Feature","geometry":{"type":"Point","coordinates":[28.25996984733132,-12.54999753942184]},"properties":{"name":"Mufulira","name_de":"Mufulira"}},{"type":"Feature","geometry":{"type":"Point","coordinates":[28.22002396516962,-12.81003334671453]},"properties":{"name":"Kitwe","name_de":"Kitwe"}},{"type":"Feature","geometry":{"type":"Point","coordinates":[25.86001297883212,-17.86000933957319]},"properties":{"name":"Livingstone","name_de":"Livingstone"}},{"type":"Feature","geometry":{"type":"Point","coordinates":[31.10000321322798,-18.00000079465195]},"properties":{"name":"Chitungwiza","name_de":"Chitungwiza"}},{"type":"Feature","geometry":{"type":"Point","coordinates":[9.7080451474983,4.06235562720019]},"properties":{"name":"Douala","name_de":"Duala"}},{"type":"Feature","geometry":{"type":"Point","coordinates":[-1.92194264551705,52.47691983637844]},"properties":{"name":"Birmingham","name_de":"Birmingham"}},{"type":"Feature","geometry":{"type":"Point","coordinates":[-5.9600344252666,54.60001222647179]},"properties":{"name":"Belfast","name_de":"Belfast"}},{"type":"Feature","geometry":{"type":"Point","coordinates":[27.14984815184931,38.43809554094969]},"properties":{"name":"İzmir","name_de":"Izmir"}},{"type":"Feature","geometry":{"type":"Point","coordinates":[29.0680520648935,40.20193265371228]},"properties":{"name":"Bursa","name_de":"Bursa"}},{"type":"Feature","geometry":{"type":"Point","coordinates":[36.34366247431666,41.27999839178313]},"properties":{"name":"Samsun","name_de":"Samsun"}},{"type":"Feature","geometry":{"type":"Point","coordinates":[32.47306386503732,37.87695828846842]},"properties":{"name":"Konya","name_de":"Konya"}},{"type":"Feature","geometry":{"type":"Point","coordinates":[35.31805816843411,36.99693448475409]},"properties":{"name":"Adana","name_de":"Adana"}},{"type":"Feature","geometry":{"type":"Point","coordinates":[32.28003454461305,2.77999696747537]},"properties":{"name":"Gulu","name_de":"Gulu"}},{"type":"Feature","geometry":{"type":"Point","coordinates":[30.05858591906412,-1.95164421006325]},"properties":{"name":"Kigali","name_de":"Kigali"}},{"type":"Feature","geometry":{"type":"Point","coordinates":[-54.2332894303425,3.85000917451094]},"properties":{"name":"Cottica","name_de":""}},{"type":"Feature","geometry":{"type":"Point","coordinates":[-4.77000370423315,37.87999920557161]},"properties":{"name":"Córdoba","name_de":"Córdoba"}},{"type":"Feature","geometry":{"type":"Point","coordinates":[7.09640376651731,13.49164288223176]},"properties":{"name":"Maradi","name_de":"Maradi"}},{"type":"Feature","geometry":{"type":"Point","coordinates":[5.25992671572885,14.8999806914822]},"properties":{"name":"Tahoua","name_de":"Tahoua"}},{"type":"Feature","geometry":{"type":"Point","coordinates":[28.60997432324405,44.20266237291463]},"properties":{"name":"Constanța","name_de":"Konstanza"}},{"type":"Feature","geometry":{"type":"Point","coordinates":[22.15837832935387,65.59663477228145]},"properties":{"name":"Luleå","name_de":"Luleå"}},{"type":"Feature","geometry":{"type":"Point","coordinates":[17.31665848661032,62.40005291660725]},"properties":{"name":"Sundsvall","name_de":"Sundsvall"}},{"type":"Feature","geometry":{"type":"Point","coordinates":[27.57494706087027,47.1683469839291]},"properties":{"name":"Iași","name_de":"Iași"}},{"type":"Feature","geometry":{"type":"Point","coordinates":[99.34012731831876,9.15009909966244]},"properties":{"name":"Surat Thani","name_de":"Surat Thani"}},{"type":"Feature","geometry":{"type":"Point","coordinates":[98.98004593810896,18.79997519833387]},"properties":{"name":"Chiang Mai","name_de":"Chiang Mai"}},{"type":"Feature","geometry":{"type":"Point","coordinates":[102.1000105377309,15.00002626439931]},"properties":{"name":"Nakhon Ratchasima","name_de":"Nakhon Ratchasima"}},{"type":"Feature","geometry":{"type":"Point","coordinates":[31.13333451205637,-26.31665077840921]},"properties":{"name":"Mbabane","name_de":"Mbabane"}},{"type":"Feature","geometry":{"type":"Point","coordinates":[-80.62997278005753,-5.210032125981]},"properties":{"name":"Piura","name_de":"Piura"}},{"type":"Feature","geometry":{"type":"Point","coordinates":[-71.53195729423288,-16.41804801871501]},"properties":{"name":"Arequipa","name_de":"Arequipa"}},{"type":"Feature","geometry":{"type":"Point","coordinates":[-78.56999515960649,-9.07000323602244]},"properties":{"name":"Chimbote","name_de":"Chimbote"}},{"type":"Feature","geometry":{"type":"Point","coordinates":[-74.53499597339243,-8.36890907911857]},"properties":{"name":"Pucallpa","name_de":"Pucallpa"}},{"type":"Feature","geometry":{"type":"Point","coordinates":[-73.25000980802281,-3.7500178844387]},"properties":{"name":"Iquitos","name_de":"Iquitos"}},{"type":"Feature","geometry":{"type":"Point","coordinates":[-75.20001998055653,-12.08000038772724]},"properties":{"name":"Huancayo","name_de":"Huancayo"}},{"type":"Feature","geometry":{"type":"Point","coordinates":[-54.61605676432845,-25.516699606531]},"properties":{"name":"Ciudad del Este","name_de":"Ciudad del Este"}},{"type":"Feature","geometry":{"type":"Point","coordinates":[-25.6665834976111,37.7483018178757]},"properties":{"name":"Ponta Delgada","name_de":"Ponta Delgada"}},{"type":"Feature","geometry":{"type":"Point","coordinates":[-8.72999454897553,42.22001853338844]},"properties":{"name":"Vigo","name_de":"Vigo"}},{"type":"Feature","geometry":{"type":"Point","coordinates":[-2.92998681783263,43.24998150539773]},"properties":{"name":"Bilbao","name_de":"Bilbao"}},{"type":"Feature","geometry":{"type":"Point","coordinates":[-16.10000980779415,14.1499747914142]},"properties":{"name":"Kaolack","name_de":"Kaolack"}},{"type":"Feature","geometry":{"type":"Point","coordinates":[-13.49998763167696,16.15000775040647]},"properties":{"name":"Kaédi","name_de":"Kaédi"}},{"type":"Feature","geometry":{"type":"Point","coordinates":[22.4400150133236,13.45001751602064]},"properties":{"name":"Geneina","name_de":"Al-Dschunaina"}},{"type":"Feature","geometry":{"type":"Point","coordinates":[39.578056540847,24.50193489160518]},"properties":{"name":"Medina","name_de":"Medina"}},{"type":"Feature","geometry":{"type":"Point","coordinates":[36.55496740595822,28.38383465475238]},"properties":{"name":"Tabuk","name_de":"Tabuk"}},{"type":"Feature","geometry":{"type":"Point","coordinates":[31.58002559278731,4.82997519827796]},"properties":{"name":"Juba","name_de":"Juba"}},{"type":"Feature","geometry":{"type":"Point","coordinates":[31.65598994825638,9.53689719536709]},"properties":{"name":"Malakal","name_de":"Malakal"}},{"type":"Feature","geometry":{"type":"Point","coordinates":[32.48002233758251,15.61668113093822]},"properties":{"name":"Omdurman","name_de":"Omdurman"}},{"type":"Feature","geometry":{"type":"Point","coordinates":[30.21669795606306,13.18328961074622]},"properties":{"name":"Al-Ubayyid","name_de":"Al-Ubayyid"}},{"type":"Feature","geometry":{"type":"Point","coordinates":[4.26996130231345,52.08003684397488]},"properties":{"name":"The Hague","name_de":"Den Haag"}},{"type":"Feature","geometry":{"type":"Point","coordinates":[8.00001786157316,58.16664206860844]},"properties":{"name":"Kristiansand","name_de":"Kristiansand"}},{"type":"Feature","geometry":{"type":"Point","coordinates":[14.51496903347413,46.0552883087945]},"properties":{"name":"Ljubljana","name_de":"Ljubljana"}},{"type":"Feature","geometry":{"type":"Point","coordinates":[17.11698075223461,48.15001832996171]},"properties":{"name":"Bratislava","name_de":"Bratislava"}},{"type":"Feature","geometry":{"type":"Point","coordinates":[23.6880008531723,70.66127992673142]},"properties":{"name":"Hammerfest","name_de":"Hammerfest"}},{"type":"Feature","geometry":{"type":"Point","coordinates":[51.5329678942993,25.28655600890659]},"properties":{"name":"Doha","name_de":"Doha"}},{"type":"Feature","geometry":{"type":"Point","coordinates":[67.02304799603479,30.2219475055602]},"properties":{"name":"Quetta","name_de":"Quetta"}},{"type":"Feature","geometry":{"type":"Point","coordinates":[68.20678218473057,27.56176596985336]},"properties":{"name":"Larkana","name_de":"Larkana"}},{"type":"Feature","geometry":{"type":"Point","coordinates":[17.88329056669079,-29.66673053102676]},"properties":{"name":"Springbok","name_de":"Springbok"}},{"type":"Feature","geometry":{"type":"Point","coordinates":[21.23001135120939,-28.46003416057908]},"properties":{"name":"Upington","name_de":"Upington"}},{"type":"Feature","geometry":{"type":"Point","coordinates":[19.43993973661895,-33.64002805708429]},"properties":{"name":"Worcester","name_de":"Worcester"}},{"type":"Feature","geometry":{"type":"Point","coordinates":[22.45004024118816,-33.95003497440319]},"properties":{"name":"George","name_de":"George"}},{"type":"Feature","geometry":{"type":"Point","coordinates":[33.58000687534741,-16.17003497433217]},"properties":{"name":"Tete","name_de":"Tete"}},{"type":"Feature","geometry":{"type":"Point","coordinates":[40.53234737016686,-12.98304604202769]},"properties":{"name":"Pemba","name_de":"Pemba"}},{"type":"Feature","geometry":{"type":"Point","coordinates":[39.29304317094318,-15.13604124060401]},"properties":{"name":"Nampula","name_de":"Nampula"}},{"type":"Feature","geometry":{"type":"Point","coordinates":[26.72998571646582,-27.96998655315536]},"properties":{"name":"Welkom","name_de":"Welkom"}},{"type":"Feature","geometry":{"type":"Point","coordinates":[33.64000321323823,-25.03998451863845]},"properties":{"name":"Xai-Xai","name_de":"Xai-Xai"}},{"type":"Feature","geometry":{"type":"Point","coordinates":[145.38548213621118,-6.08331215528136]},"properties":{"name":"Goroka","name_de":"Goroka"}},{"type":"Feature","geometry":{"type":"Point","coordinates":[144.21681961993056,-5.86322223015026]},"properties":{"name":"Mount Hagen","name_de":"Mount Hagen"}},{"type":"Feature","geometry":{"type":"Point","coordinates":[152.14343072524298,-4.20549038524604]},"properties":{"name":"Rabaul","name_de":"Rabaul"}},{"type":"Feature","geometry":{"type":"Point","coordinates":[146.9900353588739,-6.73298826205479]},"properties":{"name":"Lae","name_de":"Lae"}},{"type":"Feature","geometry":{"type":"Point","coordinates":[-82.433325237747,8.43332114555801]},"properties":{"name":"David","name_de":"David"}},{"type":"Feature","geometry":{"type":"Point","coordinates":[-1.90997155903943,34.69001304019423]},"properties":{"name":"Oujda","name_de":"Oujda"}},{"type":"Feature","geometry":{"type":"Point","coordinates":[-9.23998925926401,32.31997682599212]},"properties":{"name":"Safi","name_de":"Safi"}},{"type":"Feature","geometry":{"type":"Point","coordinates":[19.26630692411823,42.46597251288171]},"properties":{"name":"Podgorica","name_de":"Podgorica"}},{"type":"Feature","geometry":{"type":"Point","coordinates":[36.88998571650643,-17.88000811887025]},"properties":{"name":"Quelimane","name_de":"Quelimane"}},{"type":"Feature","geometry":{"type":"Point","coordinates":[27.87001948925678,-32.97004311242017]},"properties":{"name":"East London","name_de":"East London"}},{"type":"Feature","geometry":{"type":"Point","coordinates":[25.00998734406301,-31.5000036430132]},"properties":{"name":"Middelburg","name_de":"Middelburg"}},{"type":"Feature","geometry":{"type":"Point","coordinates":[43.61794714231462,43.49810589504728]},"properties":{"name":"Nalchik","name_de":"Naltschik"}},{"type":"Feature","geometry":{"type":"Point","coordinates":[41.98001094439133,45.05000083320454]},"properties":{"name":"Stavropol","name_de":"Stawropol"}},{"type":"Feature","geometry":{"type":"Point","coordinates":[177.6999954826946,64.73329551101756]},"properties":{"name":"Ugolnye Kopi","name_de":"Ugolnyje Kopi"}},{"type":"Feature","geometry":{"type":"Point","coordinates":[20.49734289417512,54.70000612295655]},"properties":{"name":"Kaliningrad","name_de":"Kaliningrad"}},{"type":"Feature","geometry":{"type":"Point","coordinates":[28.32993973665436,57.82999595044299]},"properties":{"name":"Pskov","name_de":"Pskow"}},{"type":"Feature","geometry":{"type":"Point","coordinates":[34.429980833684,53.25999066071114]},"properties":{"name":"Bryansk","name_de":"Brjansk"}},{"type":"Feature","geometry":{"type":"Point","coordinates":[32.04733557000265,54.78268841462369]},"properties":{"name":"Smolensk","name_de":"Smolensk"}},{"type":"Feature","geometry":{"type":"Point","coordinates":[34.28001582717298,61.84998313307636]},"properties":{"name":"Petrozavodsk","name_de":"Petrosawodsk"}},{"type":"Feature","geometry":{"type":"Point","coordinates":[35.88999507522647,56.85997763989241]},"properties":{"name":"Tver","name_de":"Twer"}},{"type":"Feature","geometry":{"type":"Point","coordinates":[39.91998164750817,59.20998923658135]},"properties":{"name":"Vologda","name_de":"Wologda"}},{"type":"Feature","geometry":{"type":"Point","coordinates":[39.8700105374819,57.61998292960897]},"properties":{"name":"Yaroslavl","name_de":"Jaroslawl"}},{"type":"Feature","geometry":{"type":"Point","coordinates":[39.71070994254024,47.2365937051726]},"properties":{"name":"Rostov-on-Don","name_de":"Rostow am Don"}},{"type":"Feature","geometry":{"type":"Point","coordinates":[39.72996740597091,43.59001242987824]},"properties":{"name":"Sochi","name_de":"Sotschi"}},{"type":"Feature","geometry":{"type":"Point","coordinates":[39.0000377998482,45.01997682604281]},"properties":{"name":"Krasnodar","name_de":"Krasnodar"}},{"type":"Feature","geometry":{"type":"Point","coordinates":[44.9999816475285,53.18002138173955]},"properties":{"name":"Penza","name_de":"Pensa"}},{"type":"Feature","geometry":{"type":"Point","coordinates":[39.71999385453853,54.61995932933655]},"properties":{"name":"Ryazan","name_de":"Rjasan"}},{"type":"Feature","geometry":{"type":"Point","coordinates":[39.26804962352799,51.73192655024269]},"properties":{"name":"Voronezh","name_de":"Woronesch"}},{"type":"Feature","geometry":{"type":"Point","coordinates":[58.98000687544896,53.42269390778233]},"properties":{"name":"Magnitogorsk","name_de":"Magnitogorsk"}},{"type":"Feature","geometry":{"type":"Point","coordinates":[61.43672231241885,55.15693712968334]},"properties":{"name":"Chelyabinsk","name_de":"Tscheljabinsk"}},{"type":"Feature","geometry":{"type":"Point","coordinates":[64.0099840890108,67.50000001949212]},"properties":{"name":"Vorkuta","name_de":"Workuta"}},{"type":"Feature","geometry":{"type":"Point","coordinates":[49.66998083374512,58.59005291659196]},"properties":{"name":"Kirov","name_de":"Kirow"}},{"type":"Feature","geometry":{"type":"Point","coordinates":[59.97498490279662,57.92001629549554]},"properties":{"name":"Nizhny Tagil","name_de":"Nischni Tagil"}},{"type":"Feature","geometry":{"type":"Point","coordinates":[48.05498897175948,46.34865541491541]},"properties":{"name":"Astrakhan","name_de":"Astrachan"}},{"type":"Feature","geometry":{"type":"Point","coordinates":[55.11001053754285,51.77997763987207]},"properties":{"name":"Orenburg","name_de":"Orenburg"}},{"type":"Feature","geometry":{"type":"Point","coordinates":[46.02805043735725,51.58193570551549]},"properties":{"name":"Saratov","name_de":"Saratow"}},{"type":"Feature","geometry":{"type":"Point","coordinates":[48.41000606160463,54.32997702953071]},"properties":{"name":"Ulyanovsk","name_de":"Uljanowsk"}},{"type":"Feature","geometry":{"type":"Point","coordinates":[73.39800771285718,54.99193428137528]},"properties":{"name":"Omsk","name_de":"Omsk"}},{"type":"Feature","geometry":{"type":"Point","coordinates":[65.52999466844398,57.14001222648204]},"properties":{"name":"Tyumen","name_de":"Tjumen"}},{"type":"Feature","geometry":{"type":"Point","coordinates":[87.11498205459799,53.75001242991902]},"properties":{"name":"Novokuznetsk","name_de":"Nowokusnezk"}},{"type":"Feature","geometry":{"type":"Point","coordinates":[86.0899800200886,55.33996706045923]},"properties":{"name":"Kemerovo","name_de":"Kemerowo"}},{"type":"Feature","geometry":{"type":"Point","coordinates":[45.69869868854693,43.31868532212985]},"properties":{"name":"Grozny","name_de":"Grosny"}},{"type":"Feature","geometry":{"type":"Point","coordinates":[80.67000077202016,7.27998069145184]},"properties":{"name":"Kandy","name_de":"Kandy"}},{"type":"Feature","geometry":{"type":"Point","coordinates":[79.94999304089748,6.90000388480962]},"properties":{"name":"Sri Jayawardenepura Kotte","name_de":"Sri Jayewardenepura"}},{"type":"Feature","geometry":{"type":"Point","coordinates":[127.42308217596404,36.33749153227734]},"properties":{"name":"Daejeon","name_de":"Daejeon"}},{"type":"Feature","geometry":{"type":"Point","coordinates":[126.90848826320143,35.17291145414782]},"properties":{"name":"Gwangju","name_de":"Gwangju"}},{"type":"Feature","geometry":{"type":"Point","coordinates":[129.00810170722048,35.09699877511093]},"properties":{"name":"Busan","name_de":"Busan"}},{"type":"Feature","geometry":{"type":"Point","coordinates":[122.07808543115095,6.92192268450333]},"properties":{"name":"Zamboanga City","name_de":"Zamboanga City"}},{"type":"Feature","geometry":{"type":"Point","coordinates":[120.59361039132034,18.19884909969869]},"properties":{"name":"Laoag","name_de":"Laoag"}},{"type":"Feature","geometry":{"type":"Point","coordinates":[120.56994258533086,16.42999066056393]},"properties":{"name":"Baguio","name_de":"Baguio City"}},{"type":"Feature","geometry":{"type":"Point","coordinates":[125.174726113995,6.11082724906436]},"properties":{"name":"General Santos","name_de":"General Santos"}},{"type":"Feature","geometry":{"type":"Point","coordinates":[102.63331131898292,57.98996034660257]},"properties":{"name":"Ust-Ilimsk","name_de":"Ust-Ilimsk"}},{"type":"Feature","geometry":{"type":"Point","coordinates":[103.9200028066184,52.56000754710163]},"properties":{"name":"Angarsk","name_de":"Angarsk"}},{"type":"Feature","geometry":{"type":"Point","coordinates":[91.44500199276628,53.70368450836935]},"properties":{"name":"Abakan","name_de":"Abakan"}},{"type":"Feature","geometry":{"type":"Point","coordinates":[88.22499182022744,69.34001690589281]},"properties":{"name":"Norilsk","name_de":"Norilsk"}},{"type":"Feature","geometry":{"type":"Point","coordinates":[102.4650011790082,72.04114402178902]},"properties":{"name":"Khatanga","name_de":"Chatanga"}},{"type":"Feature","geometry":{"type":"Point","coordinates":[94.38306555072069,51.70670045888221]},"properties":{"name":"Kyzyl","name_de":"Kysyl"}},{"type":"Feature","geometry":{"type":"Point","coordinates":[107.62499629621652,51.82498781239826]},"properties":{"name":"Ulan-Ude","name_de":"Ulan-Ude"}},{"type":"Feature","geometry":{"type":"Point","coordinates":[127.5333418366606,50.26660748198844]},"properties":{"name":"Blagoveshchensk","name_de":"Blagoweschtschensk"}},{"type":"Feature","geometry":{"type":"Point","coordinates":[116.9166255280245,52.98334088043674]},"properties":{"name":"Bukachacha","name_de":"Bukatschatscha"}},{"type":"Feature","geometry":{"type":"Point","coordinates":[135.5172472728906,44.53721559557215]},"properties":{"name":"Dalnegorsk","name_de":"Dalnegorsk"}},{"type":"Feature","geometry":{"type":"Point","coordinates":[162.33359492924774,69.65100567542538]},"properties":{"name":"Ambarchik","name_de":""}},{"type":"Feature","geometry":{"type":"Point","coordinates":[134.63502722080364,67.65598533036518]},"properties":{"name":"Batagay","name_de":"Batagai"}},{"type":"Feature","geometry":{"type":"Point","coordinates":[147.89457962971085,70.61831097328081]},"properties":{"name":"Chokurdakh","name_de":"Tschokurdach"}},{"type":"Feature","geometry":{"type":"Point","coordinates":[143.19998246172338,64.56658734044407]},"properties":{"name":"Ust-Nera","name_de":"Ust-Nera"}},{"type":"Feature","geometry":{"type":"Point","coordinates":[114.94702998765206,60.72527142245997]},"properties":{"name":"Lensk","name_de":"Lensk"}},{"type":"Feature","geometry":{"type":"Point","coordinates":[125.38939001373537,58.60299786288107]},"properties":{"name":"Aldan","name_de":"Aldan"}},{"type":"Feature","geometry":{"type":"Point","coordinates":[113.96135371811704,62.54001853346972]},"properties":{"name":"Mirny","name_de":"Mirny"}},{"type":"Feature","geometry":{"type":"Point","coordinates":[123.37111527414412,66.76970867834336]},"properties":{"name":"Zhigansk","name_de":"Schigansk"}},{"type":"Feature","geometry":{"type":"Point","coordinates":[143.21703568437977,59.38300193189463]},"properties":{"name":"Okhotsk","name_de":"Ochotsk"}},{"type":"Feature","geometry":{"type":"Point","coordinates":[135.12001053786298,48.45498679513219]},"properties":{"name":"Khabarovsk","name_de":"Chabarowsk"}},{"type":"Feature","geometry":{"type":"Point","coordinates":[142.9478531485713,53.57389914866826]},"properties":{"name":"Okha","name_de":"Ocha"}},{"type":"Feature","geometry":{"type":"Point","coordinates":[142.74001053789334,46.96497438464439]},"properties":{"name":"Yuzhno-Sakhalinsk","name_de":"Juschno-Sachalinsk"}},{"type":"Feature","geometry":{"type":"Point","coordinates":[-115.4819619737708,32.65192838122113]},"properties":{"name":"Mexicali","name_de":"Mexicali"}},{"type":"Feature","geometry":{"type":"Point","coordinates":[-110.3199951597336,24.13995932921466]},"properties":{"name":"La Paz","name_de":"La Paz"}},{"type":"Feature","geometry":{"type":"Point","coordinates":[-103.42194874943864,25.57199877507293]},"properties":{"name":"Torreón","name_de":"Torreón"}},{"type":"Feature","geometry":{"type":"Point","coordinates":[-107.38191375596485,24.83194058822091]},"properties":{"name":"Culiacán","name_de":"Culiacán"}},{"type":"Feature","geometry":{"type":"Point","coordinates":[-110.94499577008764,31.30500001934735]},"properties":{"name":"Nogales","name_de":"Nogales"}},{"type":"Feature","geometry":{"type":"Point","coordinates":[-110.95406498395482,29.09888144837493]},"properties":{"name":"Hermosillo","name_de":"Hermosillo"}},{"type":"Feature","geometry":{"type":"Point","coordinates":[-110.8899862079129,27.9300122263652]},"properties":{"name":"Guaymas","name_de":"Guaymas"}},{"type":"Feature","geometry":{"type":"Point","coordinates":[-101.00194142521023,22.17192207421283]},"properties":{"name":"San Luis Potosí","name_de":"San Luis Potosí"}},{"type":"Feature","geometry":{"type":"Point","coordinates":[-97.50000248390104,25.87998231913042]},"properties":{"name":"Heroica Matamoros","name_de":"Heroica Matamoros"}},{"type":"Feature","geometry":{"type":"Point","coordinates":[-99.55000655291953,27.49998679504836]},"properties":{"name":"Nuevo Laredo","name_de":"Nuevo Laredo"}},{"type":"Feature","geometry":{"type":"Point","coordinates":[-103.7200104184962,19.22997479143453]},"properties":{"name":"Colima","name_de":"Colima"}},{"type":"Feature","geometry":{"type":"Point","coordinates":[-90.4999904802923,19.82998984677551]},"properties":{"name":"Campeche","name_de":"Campeche"}},{"type":"Feature","geometry":{"type":"Point","coordinates":[-96.66994979021284,17.08268983862644]},"properties":{"name":"Oaxaca de Juárez","name_de":"Oaxaca de Juárez"}},{"type":"Feature","geometry":{"type":"Point","coordinates":[-101.7019762152521,21.15193265363593]},"properties":{"name":"León","name_de":"León"}},{"type":"Feature","geometry":{"type":"Point","coordinates":[13.15806712016831,11.85190600158058]},"properties":{"name":"Maiduguri","name_de":"Maiduguri"}},{"type":"Feature","geometry":{"type":"Point","coordinates":[7.00805491311246,4.81194811581025]},"properties":{"name":"Port Harcourt","name_de":"Port Harcourt"}},{"type":"Feature","geometry":{"type":"Point","coordinates":[8.53001135115852,7.72997906384944]},"properties":{"name":"Makurdi","name_de":"Makurdi"}},{"type":"Feature","geometry":{"type":"Point","coordinates":[3.92803619565223,7.38197212298184]},"properties":{"name":"Ibadan","name_de":"Ibadan"}},{"type":"Feature","geometry":{"type":"Point","coordinates":[4.23804311297124,8.13195218483367]},"properties":{"name":"Ogbomosho","name_de":"Ogbomosho"}},{"type":"Feature","geometry":{"type":"Point","coordinates":[5.7599995510173,5.51995892223891]},"properties":{"name":"Warri","name_de":"Warri"}},{"type":"Feature","geometry":{"type":"Point","coordinates":[7.43805450621312,10.52196134011672]},"properties":{"name":"Kaduna","name_de":"Kaduna"}},{"type":"Feature","geometry":{"type":"Point","coordinates":[18.64004024117304,54.35997519847604]},"properties":{"name":"Gdańsk","name_de":"Danzig"}},{"type":"Feature","geometry":{"type":"Point","coordinates":[19.95806549259129,50.06192512608232]},"properties":{"name":"Kraków","name_de":"Krakau"}},{"type":"Feature","geometry":{"type":"Point","coordinates":[104.44028112693296,43.58355287584186]},"properties":{"name":"Dalanzadgad","name_de":"Dalandsadgad"}},{"type":"Feature","geometry":{"type":"Point","coordinates":[127.4308157949938,39.1604895213319]},"properties":{"name":"Wonsan","name_de":"Wŏnsan"}},{"type":"Feature","geometry":{"type":"Point","coordinates":[124.42128373117951,40.08585939438263]},"properties":{"name":"Sinuiju","name_de":"Sinŭiju"}},{"type":"Feature","geometry":{"type":"Point","coordinates":[91.63325923560558,48.01664145821638]},"properties":{"name":"Khovd","name_de":"Chowd"}},{"type":"Feature","geometry":{"type":"Point","coordinates":[114.50602331447304,48.06658673002647]},"properties":{"name":"Choibalsan","name_de":"Tschoibalsan"}},{"type":"Feature","geometry":{"type":"Point","coordinates":[15.15942582058608,-26.64800006226471]},"properties":{"name":"Lüderitz","name_de":"Lüderitz"}},{"type":"Feature","geometry":{"type":"Point","coordinates":[14.50530554063568,-22.95752765014055]},"properties":{"name":"Walvis Bay","name_de":"Walvis Bay"}},{"type":"Feature","geometry":{"type":"Point","coordinates":[32.93002070998011,-2.52001544302755]},"properties":{"name":"Mwanza","name_de":"Mwanza"}},{"type":"Feature","geometry":{"type":"Point","coordinates":[37.66001623408761,-6.82001137403432]},"properties":{"name":"Morogoro","name_de":"Morogoro"}},{"type":"Feature","geometry":{"type":"Point","coordinates":[35.75000362014765,-6.18330605176618]},"properties":{"name":"Dodoma","name_de":"Dodoma"}},{"type":"Feature","geometry":{"type":"Point","coordinates":[36.6699991442398,-3.36001584993193]},"properties":{"name":"Arusha","name_de":"Arusha"}},{"type":"Feature","geometry":{"type":"Point","coordinates":[7.46697546248242,46.91668275866772]},"properties":{"name":"Bern","name_de":"Bern"}},{"type":"Feature","geometry":{"type":"Point","coordinates":[13.03330236680165,55.58333721833782]},"properties":{"name":"Malmö","name_de":"Malmö"}},{"type":"Feature","geometry":{"type":"Point","coordinates":[-13.20000594222267,27.14998231913546]},"properties":{"name":"Laayoune","name_de":"El Aaiún"}},{"type":"Feature","geometry":{"type":"Point","coordinates":[127.36301631582673,0.79296063120444]},"properties":{"name":"Ternate","name_de":"Ternate"}},{"type":"Feature","geometry":{"type":"Point","coordinates":[128.2000194896582,-3.71668658561032]},"properties":{"name":"Ambon","name_de":"Ambon"}},{"type":"Feature","geometry":{"type":"Point","coordinates":[118.76664180407352,-8.44998940138458]},"properties":{"name":"Raba","name_de":""}},{"type":"Feature","geometry":{"type":"Point","coordinates":[140.69998002030718,-2.53298622753277]},"properties":{"name":"Jayapura","name_de":"Jayapura"}},{"type":"Feature","geometry":{"type":"Point","coordinates":[11.2500003648413,43.78000083319933]},"properties":{"name":"Florence","name_de":"Florenz"}},{"type":"Feature","geometry":{"type":"Point","coordinates":[15.07999914415353,37.49997072249721]},"properties":{"name":"Catania","name_de":"Catania"}},{"type":"Feature","geometry":{"type":"Point","coordinates":[21.16598425159987,42.66670961411939]},"properties":{"name":"Pristina","name_de":"Pristina"}},{"type":"Feature","geometry":{"type":"Point","coordinates":[37.64001745479061,0.05998211557659]},"properties":{"name":"Meru","name_de":"Meru"}},{"type":"Feature","geometry":{"type":"Point","coordinates":[35.26998124058855,0.52000571583881]},"properties":{"name":"Eldoret","name_de":"Eldoret"}},{"type":"Feature","geometry":{"type":"Point","coordinates":[95.32001094460468,5.54998292940064]},"properties":{"name":"Banda Aceh","name_de":"Banda Aceh"}},{"type":"Feature","geometry":{"type":"Point","coordinates":[100.32936786727998,5.41361315558424]},"properties":{"name":"George Town","name_de":"George Town"}},{"type":"Feature","geometry":{"type":"Point","coordinates":[100.45003373108364,38.92998679509401]},"properties":{"name":"Zhangye","name_de":"Zhangye"}},{"type":"Feature","geometry":{"type":"Point","coordinates":[102.64101110739443,37.92800661117087]},"properties":{"name":"Wuwei","name_de":"Wuwei"}},{"type":"Feature","geometry":{"type":"Point","coordinates":[94.66201493223237,40.14267763168738]},"properties":{"name":"Dunhuang","name_de":"Dunhuang"}},{"type":"Feature","geometry":{"type":"Point","coordinates":[105.91803823056546,34.60196439197097]},"properties":{"name":"Tianshui","name_de":"Tianshui"}},{"type":"Feature","geometry":{"type":"Point","coordinates":[98.26660111388742,36.16658957828611]},"properties":{"name":"","name_de":""}},{"type":"Feature","geometry":{"type":"Point","coordinates":[94.88334509173848,36.41662599593042]},"properties":{"name":"Golmud","name_de":"Golmud"}},{"type":"Feature","geometry":{"type":"Point","coordinates":[110.14806427224904,22.63191983625899]},"properties":{"name":"Yulin","name_de":"Yulin"}},{"type":"Feature","geometry":{"type":"Point","coordinates":[106.61332678123836,23.89971559548974]},"properties":{"name":"Baicheng","name_de":"Baicheng"}},{"type":"Feature","geometry":{"type":"Point","coordinates":[111.32001623438236,23.48002545063122]},"properties":{"name":"Wuzhou","name_de":"Wuzhou"}},{"type":"Feature","geometry":{"type":"Point","coordinates":[104.831386212332,26.59638069239469]},"properties":{"name":"Liupanshui","name_de":"Liupanshui"}},{"type":"Feature","geometry":{"type":"Point","coordinates":[118.57804067202244,24.90196215397652]},"properties":{"name":"Quanzhou","name_de":"Quanzhou"}},{"type":"Feature","geometry":{"type":"Point","coordinates":[117.27806834128808,31.85197720934287]},"properties":{"name":"Hefei","name_de":"Hefei"}},{"type":"Feature","geometry":{"type":"Point","coordinates":[116.97694304138712,33.63805695861305]},"properties":{"name":"Suzhou","name_de":"Suzhou"}},{"type":"Feature","geometry":{"type":"Point","coordinates":[110.37807607238015,21.20192960187819]},"properties":{"name":"Zhanjiang","name_de":"Zhanjiang"}},{"type":"Feature","geometry":{"type":"Point","coordinates":[113.5799816478028,24.79997072244635]},"properties":{"name":"Shaoguan","name_de":"Shaoguan"}},{"type":"Feature","geometry":{"type":"Point","coordinates":[116.8300158275032,-1.25001544302233]},"properties":{"name":"Balikpapan","name_de":"Balikpapan"}},{"type":"Feature","geometry":{"type":"Point","coordinates":[110.3299991445346,1.5299699085511]},"properties":{"name":"Kuching","name_de":"Kuching"}},{"type":"Feature","geometry":{"type":"Point","coordinates":[49.3115261042372,-12.27650151558953]},"properties":{"name":"Antsiranana","name_de":"Antsiranana"}},{"type":"Feature","geometry":{"type":"Point","coordinates":[47.08326533894302,-21.43333127969168]},"properties":{"name":"Fianarantsoa","name_de":"Fianarantsoa"}},{"type":"Feature","geometry":{"type":"Point","coordinates":[46.34501582722123,-15.67001381547595]},"properties":{"name":"Mahajanga","name_de":"Mahajanga"}},{"type":"Feature","geometry":{"type":"Point","coordinates":[43.68998408892941,-23.35683144245973]},"properties":{"name":"Toliara","name_de":"Toliara"}},{"type":"Feature","geometry":{"type":"Point","coordinates":[110.8250076894584,-7.56497882195396]},"properties":{"name":"Surakarta","name_de":"Surakarta"}},{"type":"Feature","geometry":{"type":"Point","coordinates":[105.26805206519832,-5.42807283963452]},"properties":{"name":"Bandarlampung","name_de":"Bandar Lampung"}},{"type":"Feature","geometry":{"type":"Point","coordinates":[107.65000768944572,-2.75002724315863]},"properties":{"name":"Tanjung Pandan","name_de":"Tanjung Pandan"}},{"type":"Feature","geometry":{"type":"Point","coordinates":[112.60806915507146,-7.97804639107687]},"properties":{"name":"Malang","name_de":"Malang"}},{"type":"Feature","geometry":{"type":"Point","coordinates":[123.5829886465408,-10.1786694144123]},"properties":{"name":"Kupang","name_de":"Kupang"}},{"type":"Feature","geometry":{"type":"Point","coordinates":[119.63330725004062,-4.01666827506472]},"properties":{"name":"Pare-Pare","name_de":"Pare-Pare"}},{"type":"Feature","geometry":{"type":"Point","coordinates":[-78.99999475270727,-2.89999224966965]},"properties":{"name":"Cuenca","name_de":"Cuenca"}},{"type":"Feature","geometry":{"type":"Point","coordinates":[-90.3499996355651,-0.53331500356649]},"properties":{"name":"","name_de":""}},{"type":"Feature","geometry":{"type":"Point","coordinates":[-83.03334029308792,10.0000213815668]},"properties":{"name":"Limón","name_de":"Puerto Limón"}},{"type":"Feature","geometry":{"type":"Point","coordinates":[-75.82132572600182,20.02501670224507]},"properties":{"name":"Santiago de Cuba","name_de":"Santiago de Cuba"}},{"type":"Feature","geometry":{"type":"Point","coordinates":[-70.67001224941868,19.50000998837578]},"properties":{"name":"Santiago de los Caballeros","name_de":"Santiago de los Caballeros"}},{"type":"Feature","geometry":{"type":"Point","coordinates":[-75.52000044930787,5.0599869984091]},"properties":{"name":"Manizales","name_de":"Manizales"}},{"type":"Feature","geometry":{"type":"Point","coordinates":[-77.28110742359877,1.21360679006034]},"properties":{"name":"San Juan de Pasto","name_de":"Pasto"}},{"type":"Feature","geometry":{"type":"Point","coordinates":[-74.8019127385819,10.96193448464993]},"properties":{"name":"Barranquilla","name_de":"Barranquilla"}},{"type":"Feature","geometry":{"type":"Point","coordinates":[-61.38701298180337,15.30101564428333]},"properties":{"name":"Roseau","name_de":"Roseau"}},{"type":"Feature","geometry":{"type":"Point","coordinates":[18.26001175809847,0.04003501271183]},"properties":{"name":"Mbandaka","name_de":"Mbandaka"}},{"type":"Feature","geometry":{"type":"Point","coordinates":[16.09001501329823,8.54998069145688]},"properties":{"name":"Moundou","name_de":"Moundou"}},{"type":"Feature","geometry":{"type":"Point","coordinates":[32.54994055047337,30.00497601218081]},"properties":{"name":"Suez","name_de":"Sues"}},{"type":"Feature","geometry":{"type":"Point","coordinates":[32.29000809604526,31.25998984682116]},"properties":{"name":"Port Said","name_de":"Port Said"}},{"type":"Feature","geometry":{"type":"Point","coordinates":[30.83996740593529,29.31003135071956]},"properties":{"name":"Faiyum","name_de":"al-Fayyūm"}},{"type":"Feature","geometry":{"type":"Point","coordinates":[32.89891149774047,24.08750775043837]},"properties":{"name":"Aswan","name_de":"Assuan"}},{"type":"Feature","geometry":{"type":"Point","coordinates":[31.17994665398362,27.18997987772935]},"properties":{"name":"Asyut","name_de":"Asyut"}},{"type":"Feature","geometry":{"type":"Point","coordinates":[25.22000036489721,0.52000571583881]},"properties":{"name":"Kisangani","name_de":"Kisangani"}},{"type":"Feature","geometry":{"type":"Point","coordinates":[42.72999100624333,13.01001853327159]},"properties":{"name":"Assab","name_de":"Assab"}},{"type":"Feature","geometry":{"type":"Point","coordinates":[43.14800166705226,11.59501446425549]},"properties":{"name":"Djibouti","name_de":"Dschibuti"}},{"type":"Feature","geometry":{"type":"Point","coordinates":[13.75000280625767,51.04997051910084]},"properties":{"name":"Dresden","name_de":"Dresden"}},{"type":"Feature","geometry":{"type":"Point","coordinates":[88.88334956762583,29.25000917461267]},"properties":{"name":"Samzhubzê District","name_de":"Samzhubzê"}},{"type":"Feature","geometry":{"type":"Point","coordinates":[77.25000280651165,38.42614158024821]},"properties":{"name":"Yarkant County","name_de":"Yarkant"}},{"type":"Feature","geometry":{"type":"Point","coordinates":[81.35001094454879,43.9000193471972]},"properties":{"name":"Yining City","name_de":"Gulja"}},{"type":"Feature","geometry":{"type":"Point","coordinates":[88.11662634171137,47.86659893705684]},"properties":{"name":"Altay City","name_de":"Altay"}},{"type":"Feature","geometry":{"type":"Point","coordinates":[101.7019469797865,2.91401979462455]},"properties":{"name":"Putrajaya","name_de":"Putrajaya"}},{"type":"Feature","geometry":{"type":"Point","coordinates":[106.7690278717339,39.23327577621507]},"properties":{"name":"Shizuishan","name_de":"Shizuishan"}},{"type":"Feature","geometry":{"type":"Point","coordinates":[109.7332913808603,38.2833079213936]},"properties":{"name":"Yulin","name_de":"Yulin"}},{"type":"Feature","geometry":{"type":"Point","coordinates":[109.02000158593567,32.6799806915534]},"properties":{"name":"Ankang","name_de":"Ankang"}},{"type":"Feature","geometry":{"type":"Point","coordinates":[111.20999711003287,35.61998211571881]},"properties":{"name":"Houma","name_de":"Houma"}},{"type":"Feature","geometry":{"type":"Point","coordinates":[113.098065086063,29.38199877508805]},"properties":{"name":"Yueyang","name_de":"Yueyang"}},{"type":"Feature","geometry":{"type":"Point","coordinates":[112.58807037577468,26.88197049545585]},"properties":{"name":"Hengyang","name_de":"Hengyang"}},{"type":"Feature","geometry":{"type":"Point","coordinates":[104.76803090634212,31.47192288805212]},"properties":{"name":"Mianyang","name_de":"Mianyang"}},{"type":"Feature","geometry":{"type":"Point","coordinates":[102.29999833070036,27.88001527812276]},"properties":{"name":"Xichang","name_de":"Xichang"}},{"type":"Feature","geometry":{"type":"Point","coordinates":[99.15000972391692,25.11997702941386]},"properties":{"name":"Baoshan","name_de":"Baoshan"}},{"type":"Feature","geometry":{"type":"Point","coordinates":[103.15007564190164,23.37997987771411]},"properties":{"name":"Gejiu","name_de":"Gejiu"}},{"type":"Feature","geometry":{"type":"Point","coordinates":[114.47803253398511,38.05196052642481]},"properties":{"name":"Shijiazhuang","name_de":"Shijiazhuang"}},{"type":"Feature","geometry":{"type":"Point","coordinates":[114.47803253398511,36.58192105701795]},"properties":{"name":"Handan","name_de":"Handan"}},{"type":"Feature","geometry":{"type":"Point","coordinates":[122.93808461735227,41.11696724030418]},"properties":{"name":"Anshan","name_de":"Anshan"}},{"type":"Feature","geometry":{"type":"Point","coordinates":[121.627884979006,38.92478425181571]},"properties":{"name":"Dalian","name_de":"Dalian"}},{"type":"Feature","geometry":{"type":"Point","coordinates":[120.32806305158692,36.09192512602641]},"properties":{"name":"Qingdao","name_de":"Qingdao"}},{"type":"Feature","geometry":{"type":"Point","coordinates":[118.3280300925943,35.08193509509789]},"properties":{"name":"Linyi","name_de":"Linyi"}},{"type":"Feature","geometry":{"type":"Point","coordinates":[119.0280390444202,33.58194913317772]},"properties":{"name":"Huai'an","name_de":"Huai’an"}},{"type":"Feature","geometry":{"type":"Point","coordinates":[120.64814687320244,28.02192675359828]},"properties":{"name":"Wenzhou","name_de":"Wenzhou"}},{"type":"Feature","geometry":{"type":"Point","coordinates":[121.54809194156552,29.88191658107957]},"properties":{"name":"Ningbo","name_de":"Ningbo"}},{"type":"Feature","geometry":{"type":"Point","coordinates":[130.4080679344396,33.59696113675858]},"properties":{"name":"Fukuoka","name_de":"Fukuoka"}},{"type":"Feature","geometry":{"type":"Point","coordinates":[131.4183760163636,31.91824424135501]},"properties":{"name":"Miyazaki","name_de":"Miyazaki"}},{"type":"Feature","geometry":{"type":"Point","coordinates":[127.67297155671348,26.20717165018641]},"properties":{"name":"Naha","name_de":"Naha"}},{"type":"Feature","geometry":{"type":"Point","coordinates":[133.53752315178895,33.56243328758569]},"properties":{"name":"Kōchi","name_de":"Kōchi"}},{"type":"Feature","geometry":{"type":"Point","coordinates":[123.07004837961152,0.54997804656813]},"properties":{"name":"Gorontalo","name_de":"Kota Gorontalo"}},{"type":"Feature","geometry":{"type":"Point","coordinates":[122.26804799625586,43.62190478100428]},"properties":{"name":"Tongliao","name_de":"Tongliao"}},{"type":"Feature","geometry":{"type":"Point","coordinates":[111.6580496238176,40.82192065013385]},"properties":{"name":"Hohhot","name_de":"Hohhot"}},{"type":"Feature","geometry":{"type":"Point","coordinates":[118.94804392723222,42.27196134024399]},"properties":{"name":"Chifeng","name_de":"Chifeng"}},{"type":"Feature","geometry":{"type":"Point","coordinates":[122.08003128976384,46.08001548164617]},"properties":{"name":"Ulan Hot","name_de":"Ulanhot"}},{"type":"Feature","geometry":{"type":"Point","coordinates":[119.70002152412953,49.19998008126794]},"properties":{"name":"Hailar District","name_de":"Hailar"}},{"type":"Feature","geometry":{"type":"Point","coordinates":[130.3480715965486,46.83196724032729]},"properties":{"name":"Jiamusi","name_de":"Jiamusi"}},{"type":"Feature","geometry":{"type":"Point","coordinates":[126.4820364981149,48.2390051463683]},"properties":{"name":"Bei'an","name_de":"Bei’an"}},{"type":"Feature","geometry":{"type":"Point","coordinates":[124.9980622378032,46.5819049844668]},"properties":{"name":"Daqing","name_de":"Daqing"}},{"type":"Feature","geometry":{"type":"Point","coordinates":[130.96808543118652,45.30190559481321]},"properties":{"name":"Jixi","name_de":"Jixi"}},{"type":"Feature","geometry":{"type":"Point","coordinates":[136.91304555490842,35.15694343656941]},"properties":{"name":"Nagoya","name_de":"Nagoya"}},{"type":"Feature","geometry":{"type":"Point","coordinates":[138.17000524816171,36.64999676416045]},"properties":{"name":"Nagano","name_de":"Nagano"}},{"type":"Feature","geometry":{"type":"Point","coordinates":[144.37469112058216,42.97495953274034]},"properties":{"name":"Kushiro","name_de":"Kushiro-shi"}},{"type":"Feature","geometry":{"type":"Point","coordinates":[140.73997757890106,41.79497987778768]},"properties":{"name":"Hakodate","name_de":"Hakodate"}},{"type":"Feature","geometry":{"type":"Point","coordinates":[135.7480520653204,35.03193814685562]},"properties":{"name":"Kyoto","name_de":"Kyōto"}},{"type":"Feature","geometry":{"type":"Point","coordinates":[141.01977162914363,38.28905199778001]},"properties":{"name":"Sendai","name_de":"Sendai"}},{"type":"Feature","geometry":{"type":"Point","coordinates":[139.8500577384026,38.9200390818778]},"properties":{"name":"Sakata","name_de":"Sakata"}},{"type":"Feature","geometry":{"type":"Point","coordinates":[17.37996211616803,-3.30999306347343]},"properties":{"name":"Bandundu","name_de":"Bandundu"}},{"type":"Feature","geometry":{"type":"Point","coordinates":[22.39807159611678,-5.8880964398968]},"properties":{"name":"Kananga","name_de":"Kananga"}},{"type":"Feature","geometry":{"type":"Point","coordinates":[26.66001582714256,-4.45002683626444]},"properties":{"name":"Kasongo","name_de":""}},{"type":"Feature","geometry":{"type":"Point","coordinates":[23.59805003036638,-6.1480805707572]},"properties":{"name":"Mbuji-Mayi","name_de":"Mbuji-Mayi"}},{"type":"Feature","geometry":{"type":"Point","coordinates":[29.20001582715281,-5.93329547233804]},"properties":{"name":"Kalemie","name_de":"Kalemie"}},{"type":"Feature","geometry":{"type":"Point","coordinates":[29.28001094434063,0.13000368133203]},"properties":{"name":"Butembo","name_de":"Butembo"}},{"type":"Feature","geometry":{"type":"Point","coordinates":[29.22178680217241,-1.67879910092353]},"properties":{"name":"Goma","name_de":"Goma"}},{"type":"Feature","geometry":{"type":"Point","coordinates":[34.01998001988045,-11.45998655308932]},"properties":{"name":"Mzuzu","name_de":"Mzuzu"}},{"type":"Feature","geometry":{"type":"Point","coordinates":[34.98994665399886,-15.79000649125771]},"properties":{"name":"Blantyre","name_de":"Blantyre"}},{"type":"Feature","geometry":{"type":"Point","coordinates":[-91.52000573908543,14.82995912572682]},"properties":{"name":"Quetzaltenango","name_de":"Quetzaltenango"}},{"type":"Feature","geometry":{"type":"Point","coordinates":[-16.59170148921259,13.45387646031594]},"properties":{"name":"Banjul","name_de":"Banjul"}},{"type":"Feature","geometry":{"type":"Point","coordinates":[77.31472084138721,28.43527915861296]},"properties":{"name":"Faridabad","name_de":"Faridabad"}},{"type":"Feature","geometry":{"type":"Point","coordinates":[74.81306345830552,34.10191739489869]},"properties":{"name":"Srinagar","name_de":"Srinagar"}},{"type":"Feature","geometry":{"type":"Point","coordinates":[80.62805735481317,16.52190518779702]},"properties":{"name":"Vijayawada","name_de":"Vijayawada"}},{"type":"Feature","geometry":{"type":"Point","coordinates":[76.94807525844436,8.50192960182733]},"properties":{"name":"Thiruvananthapuram","name_de":"Thiruvananthapuram"}},{"type":"Feature","geometry":{"type":"Point","coordinates":[76.22196970831124,10.01695340554454]},"properties":{"name":"Kochi","name_de":"Kochi"}},{"type":"Feature","geometry":{"type":"Point","coordinates":[85.8899405506869,20.47000246071019]},"properties":{"name":"Cuttack","name_de":"Cuttack"}},{"type":"Feature","geometry":{"type":"Point","coordinates":[75.1230703756247,15.3619243121413]},"properties":{"name":"Hubli","name_de":"Hubli-Dharwad"}},{"type":"Feature","geometry":{"type":"Point","coordinates":[74.8499942615802,12.90002524713833]},"properties":{"name":"Mangalore","name_de":"Mangaluru"}},{"type":"Feature","geometry":{"type":"Point","coordinates":[76.65806712042252,12.31192960184257]},"properties":{"name":"Mysore","name_de":"Mysore"}},{"type":"Feature","geometry":{"type":"Point","coordinates":[76.82000321341098,17.3499603464399]},"properties":{"name":"Gulbarga","name_de":"Gulbarga"}},{"type":"Feature","geometry":{"type":"Point","coordinates":[74.22000687550991,16.70000001928901]},"properties":{"name":"Kolhapur","name_de":"Kolhapur"}},{"type":"Feature","geometry":{"type":"Point","coordinates":[77.30002559297014,19.16997845354365]},"properties":{"name":"Nanded","name_de":"Nanded"}},{"type":"Feature","geometry":{"type":"Point","coordinates":[77.01001745494813,20.70998781227377]},"properties":{"name":"Akola","name_de":"Akola"}},{"type":"Feature","geometry":{"type":"Point","coordinates":[91.76804921683704,26.16196276433317]},"properties":{"name":"Guwahati","name_de":"Guwahati"}},{"type":"Feature","geometry":{"type":"Point","coordinates":[13.2800056545629,-4.18001747753937]},"properties":{"name":"Kayes","name_de":""}},{"type":"Feature","geometry":{"type":"Point","coordinates":[13.58329463568401,-1.63329954133127]},"properties":{"name":"Franceville","name_de":"Franceville"}},{"type":"Feature","geometry":{"type":"Point","coordinates":[-0.59695892155332,44.85195889884796]},"properties":{"name":"Bordeaux","name_de":"Bordeaux"}},{"type":"Feature","geometry":{"type":"Point","coordinates":[5.37306427182989,43.29192492260455]},"properties":{"name":"Marseille","name_de":"Marseille"}},{"type":"Feature","geometry":{"type":"Point","coordinates":[0.10497005066901,49.50497438465459]},"properties":{"name":"Le Havre","name_de":"Le Havre"}},{"type":"Feature","geometry":{"type":"Point","coordinates":[-0.05000756977421,16.2665897816571]},"properties":{"name":"Gao","name_de":"Gao"}},{"type":"Feature","geometry":{"type":"Point","coordinates":[-72.07000431485403,-45.56999753955392]},"properties":{"name":"Coyhaique","name_de":"Coyhaique"}},{"type":"Feature","geometry":{"type":"Point","coordinates":[-70.28998376634428,-18.50002195350811]},"properties":{"name":"Arica","name_de":"Arica"}},{"type":"Feature","geometry":{"type":"Point","coordinates":[-70.33998071458666,-27.35999794638201]},"properties":{"name":"Copiapó","name_de":"Copiapó"}},{"type":"Feature","geometry":{"type":"Point","coordinates":[-71.24997684903042,-29.89999794639226]},"properties":{"name":"La Serena","name_de":"La Serena"}},{"type":"Feature","geometry":{"type":"Point","coordinates":[-72.35998661465987,-37.46000160853185]},"properties":{"name":"Villa Los Ángeles","name_de":"Los Ángeles"}},{"type":"Feature","geometry":{"type":"Point","coordinates":[-45.41661828772908,61.1665881542325]},"properties":{"name":"Narsarsuaq","name_de":"Narsarsuaq"}},{"type":"Feature","geometry":{"type":"Point","coordinates":[-53.66660567382985,66.95000775060981]},"properties":{"name":"Sisimiut","name_de":"Sisimiut"}},{"type":"Feature","geometry":{"type":"Point","coordinates":[-56.1416753220393,72.70936669393757]},"properties":{"name":"Uppernavik","name_de":"Upernavik"}},{"type":"Feature","geometry":{"type":"Point","coordinates":[-69.33223860846283,77.48347332682386]},"properties":{"name":"Qaanaaq","name_de":"Qaanaaq"}},{"type":"Feature","geometry":{"type":"Point","coordinates":[-17.05602380519383,20.90000205381085]},"properties":{"name":"Nouadhibou","name_de":"Nouadhibou"}},{"type":"Feature","geometry":{"type":"Point","coordinates":[-11.44001001122603,14.4499823190846]},"properties":{"name":"Kayes","name_de":"Kayes"}},{"type":"Feature","geometry":{"type":"Point","coordinates":[-9.61665877423951,16.66659120581227]},"properties":{"name":"Ayoun el Atrous","name_de":"Ayoûn el-Atroûs"}},{"type":"Feature","geometry":{"type":"Point","coordinates":[-6.26001611472088,13.43999228815608]},"properties":{"name":"Ségou","name_de":"Ségou"}},{"type":"Feature","geometry":{"type":"Point","coordinates":[21.4334614651425,42.00000612290586]},"properties":{"name":"Skopje","name_de":"Skopje"}},{"type":"Feature","geometry":{"type":"Point","coordinates":[23.28998897166037,24.19998150532149]},"properties":{"name":"Al Jawf","name_de":"al-Dschauf"}},{"type":"Feature","geometry":{"type":"Point","coordinates":[15.80000687527621,26.36664512023907]},"properties":{"name":"Tmassa","name_de":""}},{"type":"Feature","geometry":{"type":"Point","coordinates":[15.09999792345048,32.379973163883]},"properties":{"name":"Misrata","name_de":"Misrata"}},{"type":"Feature","geometry":{"type":"Point","coordinates":[12.0791487209645,32.93440960594234]},"properties":{"name":"Zuwara","name_de":"Zuwara"}},{"type":"Feature","geometry":{"type":"Point","coordinates":[44.39226680377601,35.47223919579631]},"properties":{"name":"Kirkuk","name_de":"Kirkuk"}},{"type":"Feature","geometry":{"type":"Point","coordinates":[43.14305857536641,36.34694831938669]},"properties":{"name":"Mosul","name_de":"Mossul"}},{"type":"Feature","geometry":{"type":"Point","coordinates":[44.33537105182268,32.00033225405071]},"properties":{"name":"Najaf","name_de":"Nadschaf"}},{"type":"Feature","geometry":{"type":"Point","coordinates":[37.38328893916457,11.60005291640397]},"properties":{"name":"Bahir Dar","name_de":"Bahir Dar"}},{"type":"Feature","geometry":{"type":"Point","coordinates":[39.4699832751104,13.4999886260469]},"properties":{"name":"Mek'ele","name_de":"Mek’ele"}},{"type":"Feature","geometry":{"type":"Point","coordinates":[41.86001826860962,9.58999472954707]},"properties":{"name":"Dire Dawa","name_de":"Dire Dawa"}},{"type":"Feature","geometry":{"type":"Point","coordinates":[25.71593908560237,66.50003521642839]},"properties":{"name":"Rovaniemi","name_de":"Rovaniemi"}},{"type":"Feature","geometry":{"type":"Point","coordinates":[21.60001460641922,63.09998435378441]},"properties":{"name":"Vaasa","name_de":"Vaasa"}},{"type":"Feature","geometry":{"type":"Point","coordinates":[23.75001257192253,61.50000449537964]},"properties":{"name":"Tampere","name_de":"Tampere"}},{"type":"Feature","geometry":{"type":"Point","coordinates":[57.16998815799377,50.28001751616807]},"properties":{"name":"Aktobe","name_de":"Aqtöbe"}},{"type":"Feature","geometry":{"type":"Point","coordinates":[63.13003779994472,52.95269675608773]},"properties":{"name":"Rudniy","name_de":"Rudny"}},{"type":"Feature","geometry":{"type":"Point","coordinates":[65.46498571662067,44.80001609199258]},"properties":{"name":"Kyzylorda","name_de":"Qysylorda"}},{"type":"Feature","geometry":{"type":"Point","coordinates":[51.92002437216553,47.11269146635084]},"properties":{"name":"Atyrau","name_de":"Atyrau"}},{"type":"Feature","geometry":{"type":"Point","coordinates":[75.3199397368424,51.72998069162964]},"properties":{"name":"Ekibastuz","name_de":"Ekibastus"}},{"type":"Feature","geometry":{"type":"Point","coordinates":[76.95002111705725,52.29999757802511]},"properties":{"name":"Pavlodar","name_de":"Pawlodar"}},{"type":"Feature","geometry":{"type":"Point","coordinates":[80.27503780001331,50.43499513661152]},"properties":{"name":"Semey","name_de":"Semei"}},{"type":"Feature","geometry":{"type":"Point","coordinates":[82.61494665418934,49.99003521636223]},"properties":{"name":"Oskemen","name_de":"Öskemen"}},{"type":"Feature","geometry":{"type":"Point","coordinates":[54.37000402712323,31.92005291648536]},"properties":{"name":"Yazd","name_de":"Yazd"}},{"type":"Feature","geometry":{"type":"Point","coordinates":[48.71806712031071,31.28193448473104]},"properties":{"name":"Ahvaz","name_de":"Ahvaz"}},{"type":"Feature","geometry":{"type":"Point","coordinates":[47.81161082147895,30.51546964097804]},"properties":{"name":"Basra","name_de":"Basra"}},{"type":"Feature","geometry":{"type":"Point","coordinates":[56.27213554363476,27.20405978220959]},"properties":{"name":"Bandar Abbas","name_de":"Bandar Abbas"}},{"type":"Feature","geometry":{"type":"Point","coordinates":[48.51501257202165,34.79602724104103]},"properties":{"name":"Hamadan","name_de":"Hamadan"}},{"type":"Feature","geometry":{"type":"Point","coordinates":[46.29930003045723,38.08823738189392]},"properties":{"name":"Tabriz","name_de":"Täbris"}},{"type":"Feature","geometry":{"type":"Point","coordinates":[75.8703115865651,30.9297079222298]},"properties":{"name":"Ludhiana","name_de":"Ludhiana"}},{"type":"Feature","geometry":{"type":"Point","coordinates":[75.8330528788826,25.18194506413363]},"properties":{"name":"Kota","name_de":"Kota"}},{"type":"Feature","geometry":{"type":"Point","coordinates":[73.01482696741311,26.29371182846109]},"properties":{"name":"Jodhpur","name_de":"Jodhpur"}},{"type":"Feature","geometry":{"type":"Point","coordinates":[69.59501786181949,42.3200124298732]},"properties":{"name":"Shymkent","name_de":"Schymkent"}},{"type":"Feature","geometry":{"type":"Point","coordinates":[71.36498734424856,42.89997702948489]},"properties":{"name":"Taraz","name_de":"Taras"}},{"type":"Feature","geometry":{"type":"Point","coordinates":[80.91305287890293,26.85698494044243]},"properties":{"name":"Lucknow","name_de":"Lucknow"}},{"type":"Feature","geometry":{"type":"Point","coordinates":[77.55003617239828,29.97001690573535]},"properties":{"name":"Saharanpur","name_de":"Saharanpur"}},{"type":"Feature","geometry":{"type":"Point","coordinates":[85.32808054819151,23.37195218489478]},"properties":{"name":"Ranchi","name_de":"Ranchi"}},{"type":"Feature","geometry":{"type":"Point","coordinates":[86.9800032134516,25.22999615376318]},"properties":{"name":"Bhagalpur","name_de":"Bhagalpur"}},{"type":"Feature","geometry":{"type":"Point","coordinates":[81.63306061002561,21.236940384756]},"properties":{"name":"Raipur","name_de":"Raipur"}},{"type":"Feature","geometry":{"type":"Point","coordinates":[79.95311147264908,23.17700284407363]},"properties":{"name":"Jabalpur","name_de":"Jabalpur"}},{"type":"Feature","geometry":{"type":"Point","coordinates":[75.86307688604415,22.71700508202747]},"properties":{"name":"Indore","name_de":"Indore"}},{"type":"Feature","geometry":{"type":"Point","coordinates":[79.83000036511578,11.93499371230377]},"properties":{"name":"Pondicherry","name_de":"Puducherry"}},{"type":"Feature","geometry":{"type":"Point","coordinates":[78.17812937628787,11.67194282612405]},"properties":{"name":"Salem","name_de":"Salem"}},{"type":"Feature","geometry":{"type":"Point","coordinates":[78.68802073371177,10.81194363992273]},"properties":{"name":"Trichy","name_de":"Tiruchirappalli"}},{"type":"Feature","geometry":{"type":"Point","coordinates":[11.88003942734383,-4.77000730501567]},"properties":{"name":"Pointe-Noire","name_de":"Pointe-Noire"}},{"type":"Feature","geometry":{"type":"Point","coordinates":[-9.31001082501962,10.38999757785757]},"properties":{"name":"Kankan","name_de":"Kankan"}},{"type":"Feature","geometry":{"type":"Point","coordinates":[-8.8299884454604,7.76000307101094]},"properties":{"name":"Nzérékoré","name_de":"Nzérékoré"}},{"type":"Feature","geometry":{"type":"Point","coordinates":[-5.03001367330978,7.68998150525556]},"properties":{"name":"Bouaké","name_de":"Bouaké"}},{"type":"Feature","geometry":{"type":"Point","coordinates":[55.44807775759637,-20.87889483763223]},"properties":{"name":"Saint-Denis","name_de":"Saint-Denis"}},{"type":"Feature","geometry":{"type":"Point","coordinates":[-67.80000655279258,-9.96658933628652]},"properties":{"name":"Rio Branco","name_de":"Rio Branco"}},{"type":"Feature","geometry":{"type":"Point","coordinates":[-44.26793670493117,-2.51403882269574]},"properties":{"name":"São Luís","name_de":"São Luís"}},{"type":"Feature","geometry":{"type":"Point","coordinates":[-63.90001204594097,-8.75002276727122]},"properties":{"name":"Porto Velho","name_de":"Porto Velho"}},{"type":"Feature","geometry":{"type":"Point","coordinates":[-49.08200179197547,-12.47000242223402]},"properties":{"name":"Alvorada","name_de":"Alvorada"}},{"type":"Feature","geometry":{"type":"Point","coordinates":[-57.65000594240047,-19.01601112994251]},"properties":{"name":"Corumbá","name_de":"Corumbá"}},{"type":"Feature","geometry":{"type":"Point","coordinates":[-43.91695037680483,-19.91308016391116]},"properties":{"name":"Belo Horizonte","name_de":"Belo Horizonte"}},{"type":"Feature","geometry":{"type":"Point","coordinates":[-43.86002079423326,-16.72002724321453]},"properties":{"name":"Montes Claros","name_de":"Montes Claros"}},{"type":"Feature","geometry":{"type":"Point","coordinates":[-48.27998356280563,-18.89999753944715]},"properties":{"name":"Uberlândia","name_de":"Uberlândia"}},{"type":"Feature","geometry":{"type":"Point","coordinates":[-55.45057946940989,-10.81728676467532]},"properties":{"name":"Colíder","name_de":"Colíder"}},{"type":"Feature","geometry":{"type":"Point","coordinates":[-55.90998295248465,-9.90003009149456]},"properties":{"name":"Alta Floresta","name_de":"Alta Floresta"}},{"type":"Feature","geometry":{"type":"Point","coordinates":[-56.08693104905399,-15.5676606489198]},"properties":{"name":"Cuiabá","name_de":"Cuiabá"}},{"type":"Feature","geometry":{"type":"Point","coordinates":[-52.33002059081667,-31.75001422244133]},"properties":{"name":"Pelotas","name_de":"Pelotas"}},{"type":"Feature","geometry":{"type":"Point","coordinates":[-51.17003971516095,-29.17999021526958]},"properties":{"name":"Caxias do Sul","name_de":"Caxias do Sul"}},{"type":"Feature","geometry":{"type":"Point","coordinates":[-50.16004968423243,-25.090007305097]},"properties":{"name":"Ponta Grossa","name_de":"Ponta Grossa"}},{"type":"Feature","geometry":{"type":"Point","coordinates":[-42.78195505616224,-5.09305452908632]},"properties":{"name":"Teresina","name_de":"Teresina"}},{"type":"Feature","geometry":{"type":"Point","coordinates":[-35.73192026609496,-9.61804964629198]},"properties":{"name":"Maceió","name_de":"Maceió"}},{"type":"Feature","geometry":{"type":"Point","coordinates":[-40.83999841466397,-14.85001218786851]},"properties":{"name":"","name_de":""}},{"type":"Feature","geometry":{"type":"Point","coordinates":[-45.00000289059204,-12.13999672561812]},"properties":{"name":"Barreiras","name_de":"Barreiras"}},{"type":"Feature","geometry":{"type":"Point","coordinates":[-40.31798893386758,-20.36760821653638]},"properties":{"name":"Vila Velha","name_de":"Vila Velha"}},{"type":"Feature","geometry":{"type":"Point","coordinates":[-35.24195017331954,-5.77807731554731]},"properties":{"name":"Natal","name_de":"Natal"}},{"type":"Feature","geometry":{"type":"Point","coordinates":[-97.86662093279568,55.74994203604672]},"properties":{"name":"Thompson","name_de":"Thompson"}},{"type":"Feature","geometry":{"type":"Point","coordinates":[-99.94998213885872,49.83327475900489]},"properties":{"name":"Brandon","name_de":"Brandon"}},{"type":"Feature","geometry":{"type":"Point","coordinates":[-111.88333642764348,60.00001853345964]},"properties":{"name":"Fort Smith","name_de":"Fort Smith"}},{"type":"Feature","geometry":{"type":"Point","coordinates":[-111.38331526878731,56.73331870434498]},"properties":{"name":"Fort McMurray","name_de":"Fort McMurray"}},{"type":"Feature","geometry":{"type":"Point","coordinates":[-117.28329105819888,56.23332338370494]},"properties":{"name":"Peace River","name_de":"Peace River"}},{"type":"Feature","geometry":{"type":"Point","coordinates":[-120.8332810891376,56.24998903311899]},"properties":{"name":"Fort St. John","name_de":"Fort St. John"}},{"type":"Feature","geometry":{"type":"Point","coordinates":[-68.50019174614948,63.75045937885693]},"properties":{"name":"Iqaluit","name_de":"Iqaluit"}},{"type":"Feature","geometry":{"type":"Point","coordinates":[-105.0333152687619,69.11695558590492]},"properties":{"name":"Cambridge Bay","name_de":"Cambridge Bay"}},{"type":"Feature","geometry":{"type":"Point","coordinates":[-115.125350423001,67.7986628235563]},"properties":{"name":"Kugluktuk","name_de":"Kugluktuk"}},{"type":"Feature","geometry":{"type":"Point","coordinates":[-90.70008162612646,63.33829022129839]},"properties":{"name":"Chesterfield Inlet","name_de":"Chesterfield Inlet"}},{"type":"Feature","geometry":{"type":"Point","coordinates":[-94.05860671826848,61.10859211118731]},"properties":{"name":"Arviat","name_de":"Arviat"}},{"type":"Feature","geometry":{"type":"Point","coordinates":[-93.53331954117677,69.5333126008806]},"properties":{"name":"Taloyoak","name_de":"Taloyoak"}},{"type":"Feature","geometry":{"type":"Point","coordinates":[-81.7935921273588,69.25653506117754]},"properties":{"name":"Igloolik","name_de":"Iglulik"}},{"type":"Feature","geometry":{"type":"Point","coordinates":[-139.41666874383435,64.06664369623621]},"properties":{"name":"Dawson City","name_de":"Dawson"}},{"type":"Feature","geometry":{"type":"Point","coordinates":[-81.33331486176604,48.46658815418164]},"properties":{"name":"Timmins","name_de":"Timmins"}},{"type":"Feature","geometry":{"type":"Point","coordinates":[-79.44999312510487,46.30000205391264]},"properties":{"name":"North Bay","name_de":"North Bay"}},{"type":"Feature","geometry":{"type":"Point","coordinates":[-77.76583235849654,55.28149517732084]},"properties":{"name":"Kuujjuarapik","name_de":"Kuujjuarapik"}},{"type":"Feature","geometry":{"type":"Point","coordinates":[-68.39999576991738,58.10000530916807]},"properties":{"name":"Kuujjuaq","name_de":"Kuujjuaq"}},{"type":"Feature","geometry":{"type":"Point","coordinates":[-60.17998071454593,46.06611452135951]},"properties":{"name":"Sydney","name_de":"Sydney"}},{"type":"Feature","geometry":{"type":"Point","coordinates":[-66.91587447271087,52.94143129384804]},"properties":{"name":"Labrador City","name_de":"Labrador City"}},{"type":"Feature","geometry":{"type":"Point","coordinates":[11.15000646835659,2.90001548147325]},"properties":{"name":"Ebolowa","name_de":"Ebolowa"}},{"type":"Feature","geometry":{"type":"Point","coordinates":[20.6672033271185,5.76195965466184]},"properties":{"name":"Bambari","name_de":"Bambari"}},{"type":"Feature","geometry":{"type":"Point","coordinates":[12.33499873724151,45.4386592804716]},"properties":{"name":"Venice","name_de":"Venedig"}},{"type":"Feature","geometry":{"type":"Point","coordinates":[-72.30001611498506,-50.33332436248963]},"properties":{"name":"El Calafate","name_de":"El Calafate"}},{"type":"Feature","geometry":{"type":"Point","coordinates":[-68.51998844569908,-31.55002642947175]},"properties":{"name":"San Juan","name_de":"San Juan"}},{"type":"Feature","geometry":{"type":"Point","coordinates":[-65.09999048019068,-43.30000689826875]},"properties":{"name":"Rawson","name_de":"Rawson"}},{"type":"Feature","geometry":{"type":"Point","coordinates":[-68.05999068365293,-38.95003985723571]},"properties":{"name":"Neuquén","name_de":"Neuquén"}},{"type":"Feature","geometry":{"type":"Point","coordinates":[-64.89997684900499,-14.83337237667052]},"properties":{"name":"Trinidad","name_de":"Trinidad"}},{"type":"Feature","geometry":{"type":"Point","coordinates":[-64.29998763188019,-36.62000120162742]},"properties":{"name":"Santa Rosa","name_de":"Santa Rosa de Toay"}},{"type":"Feature","geometry":{"type":"Point","coordinates":[-71.29999963548892,-41.14995725633309]},"properties":{"name":"San Carlos de Bariloche","name_de":"Bariloche"}},{"type":"Feature","geometry":{"type":"Point","coordinates":[-65.41663781905908,-24.78335935587699]},"properties":{"name":"Salta","name_de":"Salta"}},{"type":"Feature","geometry":{"type":"Point","coordinates":[-65.21857004648632,-26.81405428503251]},"properties":{"name":"San Miguel de Tucumán","name_de":"San Miguel de Tucumán"}},{"type":"Feature","geometry":{"type":"Point","coordinates":[-58.1828157975458,-26.17283526734093]},"properties":{"name":"Formosa","name_de":"Formosa"}},{"type":"Feature","geometry":{"type":"Point","coordinates":[-60.69000126305065,-31.62387205121689]},"properties":{"name":"Santa Fe","name_de":"Santa Fe"}},{"type":"Feature","geometry":{"type":"Point","coordinates":[-60.66825347745777,-32.94918367958837]},"properties":{"name":"Rosario","name_de":"Rosario"}},{"type":"Feature","geometry":{"type":"Point","coordinates":[-47.10197560468208,-22.8980659223867]},"properties":{"name":"Campinas","name_de":"Campinas"}},{"type":"Feature","geometry":{"type":"Point","coordinates":[-47.46998132484668,-23.49000160847595]},"properties":{"name":"Sorocaba","name_de":"Sorocaba"}},{"type":"Feature","geometry":{"type":"Point","coordinates":[-47.82998519040802,-21.17003985716462]},"properties":{"name":"Ribeirão Preto","name_de":"Ribeirão Preto"}},{"type":"Feature","geometry":{"type":"Point","coordinates":[-40.50996687983189,-9.38001015334134]},"properties":{"name":"Petrolina","name_de":"Petrolina"}},{"type":"Feature","geometry":{"type":"Point","coordinates":[10.15001582707646,5.95998374320436]},"properties":{"name":"Bamenda","name_de":"Bamenda"}},{"type":"Feature","geometry":{"type":"Point","coordinates":[13.39002477891239,9.30001242974106]},"properties":{"name":"Garoua","name_de":"Garoua"}},{"type":"Feature","geometry":{"type":"Point","coordinates":[62.16999304082628,34.33000917463301]},"properties":{"name":"Herat","name_de":"Herat"}},{"type":"Feature","geometry":{"type":"Point","coordinates":[67.1000280343356,36.69999371240289]},"properties":{"name":"Mazar-i-Sharif","name_de":"Masar-e Scharif"}},{"type":"Feature","geometry":{"type":"Point","coordinates":[103.20004675192796,13.10001304010797]},"properties":{"name":"Battambang","name_de":"Battambang"}},{"type":"Feature","geometry":{"type":"Point","coordinates":[103.85003291729504,13.36663759251781]},"properties":{"name":"Siem Reap","name_de":"Siem Reap"}},{"type":"Feature","geometry":{"type":"Point","coordinates":[16.34002559272636,-9.5400003877171]},"properties":{"name":"Malanje","name_de":"Malanje"}},{"type":"Feature","geometry":{"type":"Point","coordinates":[13.4072330308656,-12.57826454788551]},"properties":{"name":"Benguela","name_de":"Benguela"}},{"type":"Feature","geometry":{"type":"Point","coordinates":[13.49001867539715,-14.91000852575934]},"properties":{"name":"Lubango","name_de":"Lubango"}},{"type":"Feature","geometry":{"type":"Point","coordinates":[12.16002233750129,-15.19004311234892]},"properties":{"name":"Namibe","name_de":"Namibe"}},{"type":"Feature","geometry":{"type":"Point","coordinates":[-64.74998600427779,-21.51668536497851]},"properties":{"name":"Tarija","name_de":"Tarija"}},{"type":"Feature","geometry":{"type":"Point","coordinates":[-59.61652673505159,13.10200258275114]},"properties":{"name":"Bridgetown","name_de":"Bridgetown"}},{"type":"Feature","geometry":{"type":"Point","coordinates":[7.7599808335774,36.92000612288553]},"properties":{"name":"Annaba","name_de":"Annaba"}},{"type":"Feature","geometry":{"type":"Point","coordinates":[2.62003617209859,9.34000998833494]},"properties":{"name":"Parakou","name_de":"Parakou"}},{"type":"Feature","geometry":{"type":"Point","coordinates":[2.61662552756718,6.48331097302423]},"properties":{"name":"Porto-Novo","name_de":"Porto-Novo"}},{"type":"Feature","geometry":{"type":"Point","coordinates":[6.59994828148945,36.35998862613843]},"properties":{"name":"Constantine","name_de":"Constantine"}},{"type":"Feature","geometry":{"type":"Point","coordinates":[23.69998978546403,52.09998394683942]},"properties":{"name":"Brest","name_de":"Brest"}},{"type":"Feature","geometry":{"type":"Point","coordinates":[89.55805491344267,22.84193285709319]},"properties":{"name":"Khulna","name_de":"Khulna"}},{"type":"Feature","geometry":{"type":"Point","coordinates":[27.50001623404694,-21.17003985716462]},"properties":{"name":"Francistown","name_de":"Francistown"}},{"type":"Feature","geometry":{"type":"Point","coordinates":[26.82000606151815,-23.09999957396923]},"properties":{"name":"Mahalapye","name_de":"Mahalapye"}},{"type":"Feature","geometry":{"type":"Point","coordinates":[26.71003861360106,-22.39001707071117]},"properties":{"name":"Serowe","name_de":"Serowe"}},{"type":"Feature","geometry":{"type":"Point","coordinates":[132.2665929760027,-14.46662473669505]},"properties":{"name":"Katherine","name_de":"Katherine"}},{"type":"Feature","geometry":{"type":"Point","coordinates":[115.34865921942436,-33.65640948612088]},"properties":{"name":"Busselton","name_de":"Busselton"}},{"type":"Feature","geometry":{"type":"Point","coordinates":[115.7470566656724,-32.52348259041253]},"properties":{"name":"Mandurah","name_de":"Mandurah"}},{"type":"Feature","geometry":{"type":"Point","coordinates":[122.23076810262172,-17.9617706934622]},"properties":{"name":"Broome","name_de":"Broome"}},{"type":"Feature","geometry":{"type":"Point","coordinates":[121.46001745512592,-30.73539915082273]},"properties":{"name":"Kalgoorlie","name_de":"Kalgoorlie-Boulder"}},{"type":"Feature","geometry":{"type":"Point","coordinates":[117.89160477607516,-35.01694659550122]},"properties":{"name":"Albany","name_de":"Albany"}},{"type":"Feature","geometry":{"type":"Point","coordinates":[118.60603145251036,-20.31040240598924]},"properties":{"name":"Port Hedland","name_de":"Port Hedland"}},{"type":"Feature","geometry":{"type":"Point","coordinates":[116.8700133860974,-20.73037677122539]},"properties":{"name":"Karratha","name_de":"Karratha"}},{"type":"Feature","geometry":{"type":"Point","coordinates":[114.59997106837989,-28.76663043336691]},"properties":{"name":"Geraldton","name_de":"Geraldton"}},{"type":"Feature","geometry":{"type":"Point","coordinates":[146.0400158276202,-34.29001422245147]},"properties":{"name":"Griffith","name_de":"Griffith"}},{"type":"Feature","geometry":{"type":"Point","coordinates":[149.0999840893511,-33.27999835330678]},"properties":{"name":"Orange","name_de":"Orange"}},{"type":"Feature","geometry":{"type":"Point","coordinates":[148.59732743244797,-32.25995725629741]},"properties":{"name":"Dubbo","name_de":"Dubbo"}},{"type":"Feature","geometry":{"type":"Point","coordinates":[151.66747595134063,-30.5123119926186]},"properties":{"name":"Armidale","name_de":"Armidale"}},